{
"type": "FeatureCollection",
"features": [
{ "type": "Feature", "properties": { "lga_name": "Alpine" }, "geometry": { "type": "Point", "coordinates": [ 148.6093333, -36.4180762 ] } },
{ "type": "Feature", "properties": { "lga_name": "Ararat" }, "geometry": { "type": "Point", "coordinates": [ 142.9316441, -37.2846464 ] } },
{ "type": "Feature", "properties": { "lga_name": "Ballarat" }, "geometry": { "type": "Point", "coordinates": [ 143.8502556, -37.5621587 ] } },
{ "type": "Feature", "properties": { "lga_name": "Banyule" }, "geometry": { "type": "Point", "coordinates": [ 145.082419, -37.7314254 ] } },
{ "type": "Feature", "properties": { "lga_name": "Bass Coast" }, "geometry": { "type": "Point", "coordinates": [ 145.5358152, -38.5087582 ] } },
{ "type": "Feature", "properties": { "lga_name": "Baw Baw" }, "geometry": { "type": "Point", "coordinates": [ 146.273611100000011, -37.8383333 ] } },
{ "type": "Feature", "properties": { "lga_name": "Bayside" }, "geometry": { "type": "Point", "coordinates": [ 145.016269, -37.9333402 ] } },
{ "type": "Feature", "properties": { "lga_name": "Benalla" }, "geometry": { "type": "Point", "coordinates": [ 145.963353, -36.5462177 ] } },
{ "type": "Feature", "properties": { "lga_name": "Boroondara" }, "geometry": { "type": "Point", "coordinates": [ 145.071390400000013, -37.8119024 ] } },
{ "type": "Feature", "properties": { "lga_name": "Brimbank" }, "geometry": { "type": "Point", "coordinates": [ 144.8071366, -37.7594793 ] } },
{ "type": "Feature", "properties": { "lga_name": "Buloke" }, "geometry": { "type": "Point", "coordinates": [ 143.2180495, -36.1736195 ] } },
{ "type": "Feature", "properties": { "lga_name": "Campaspe" }, "geometry": { "type": "Point", "coordinates": [ 144.6972774, -36.308533 ] } },
{ "type": "Feature", "properties": { "lga_name": "Cardinia" }, "geometry": { "type": "Point", "coordinates": [ 145.580175700000012, -38.1134884 ] } },
{ "type": "Feature", "properties": { "lga_name": "Casey" }, "geometry": { "type": "Point", "coordinates": [ -85.7467891, 38.2480521 ] } },
{ "type": "Feature", "properties": { "lga_name": "Central Goldfields" }, "geometry": { "type": "Point", "coordinates": [ 143.693540500000012, -36.9802447 ] } },
{ "type": "Feature", "properties": { "lga_name": "Colac-Otway" }, "geometry": { "type": "Point", "coordinates": [ 143.6501903, -38.483006 ] } },
{ "type": "Feature", "properties": { "lga_name": "Corangamite" }, "geometry": { "type": "Point", "coordinates": [ 143.146242, -38.232448 ] } },
{ "type": "Feature", "properties": { "lga_name": "Darebin" }, "geometry": { "type": "Point", "coordinates": [ 145.016269, -37.727768 ] } },
{ "type": "Feature", "properties": { "lga_name": "East Gippsland" }, "geometry": { "type": "Point", "coordinates": [ 148.189292099999989, -37.4975957 ] } },
{ "type": "Feature", "properties": { "lga_name": "Frankston" }, "geometry": { "type": "Point", "coordinates": [ 145.135722, -38.1466246 ] } },
{ "type": "Feature", "properties": { "lga_name": "Gannawarra" }, "geometry": { "type": "Point", "coordinates": [ 143.8237385, -35.7052801 ] } },
{ "type": "Feature", "properties": { "lga_name": "Golden Plains" }, "geometry": { "type": "Point", "coordinates": [ -98.2318, 38.730095899999988 ] } },
{ "type": "Feature", "properties": { "lga_name": "Greater Bendigo" }, "geometry": { "type": "Point", "coordinates": [ 144.3467152, -36.7948261 ] } },
{ "type": "Feature", "properties": { "lga_name": "Greater Dandenong" }, "geometry": { "type": "Point", "coordinates": [ 145.2038278, -38.006110799999988 ] } },
{ "type": "Feature", "properties": { "lga_name": "Greater Geelong" }, "geometry": { "type": "Point", "coordinates": [ 144.3904526, -37.9697434 ] } },
{ "type": "Feature", "properties": { "lga_name": "Greater Shepparton" }, "geometry": { "type": "Point", "coordinates": [ 145.402868, -36.3914888 ] } },
{ "type": "Feature", "properties": { "lga_name": "Hepburn" }, "geometry": { "type": "Point", "coordinates": [ 144.125661, -37.3118233 ] } },
{ "type": "Feature", "properties": { "lga_name": "Hindmarsh" }, "geometry": { "type": "Point", "coordinates": [ 138.570272, -34.9058302 ] } },
{ "type": "Feature", "properties": { "lga_name": "Hobsons Bay" }, "geometry": { "type": "Point", "coordinates": [ 144.8401227, -37.8360799 ] } },
{ "type": "Feature", "properties": { "lga_name": "Horsham" }, "geometry": { "type": "Point", "coordinates": [ 142.1962316, -36.7188618 ] } },
{ "type": "Feature", "properties": { "lga_name": "Hume" }, "geometry": { "type": "Point", "coordinates": [ 144.8291259, -37.5986911 ] } },
{ "type": "Feature", "properties": { "lga_name": "Indigo" }, "geometry": { "type": "Point", "coordinates": [ 144.9657817, -37.8155532 ] } },
{ "type": "Feature", "properties": { "lga_name": "Kingston" }, "geometry": { "type": "Point", "coordinates": [ 139.853750100000013, -36.8310818 ] } },
{ "type": "Feature", "properties": { "lga_name": "Knox" }, "geometry": { "type": "Point", "coordinates": [ 145.24801930000001, -37.8714657 ] } },
{ "type": "Feature", "properties": { "lga_name": "Latrobe" }, "geometry": { "type": "Point", "coordinates": [ 145.0483389, -37.7206639 ] } },
{ "type": "Feature", "properties": { "lga_name": "Loddon" }, "geometry": { "type": "Point", "coordinates": [ 143.910659399999986, -36.4175636 ] } },
{ "type": "Feature", "properties": { "lga_name": "Macedon Ranges" }, "geometry": { "type": "Point", "coordinates": [ 144.6972774, -37.3663141 ] } },
{ "type": "Feature", "properties": { "lga_name": "Manningham" }, "geometry": { "type": "Point", "coordinates": [ 145.1596592, -37.7668506 ] } },
{ "type": "Feature", "properties": { "lga_name": "Mansfield" }, "geometry": { "type": "Point", "coordinates": [ 0.0, 0.0 ] } },
{ "type": "Feature", "properties": { "lga_name": "Maribyrnong" }, "geometry": { "type": "Point", "coordinates": [ 144.882080300000013, -37.7695602 ] } },
{ "type": "Feature", "properties": { "lga_name": "Maroondah" }, "geometry": { "type": "Point", "coordinates": [ 145.2590707, -37.80966 ] } },
{ "type": "Feature", "properties": { "lga_name": "Melbourne" }, "geometry": { "type": "Point", "coordinates": [ 144.963057600000013, -37.8136276 ] } },
{ "type": "Feature", "properties": { "lga_name": "Melton" }, "geometry": { "type": "Point", "coordinates": [ 144.5779508, -37.6835831 ] } },
{ "type": "Feature", "properties": { "lga_name": "Mildura" }, "geometry": { "type": "Point", "coordinates": [ 142.1245535, -34.2080167 ] } },
{ "type": "Feature", "properties": { "lga_name": "Mitchell" }, "geometry": { "type": "Point", "coordinates": [ -73.4067147, 41.4136536 ] } },
{ "type": "Feature", "properties": { "lga_name": "Moira" }, "geometry": { "type": "Point", "coordinates": [ 145.2197821, -37.9133846 ] } },
{ "type": "Feature", "properties": { "lga_name": "Glen Eira" }, "geometry": { "type": "Point", "coordinates": [ 145.0383133, -37.9034811 ] } },
{ "type": "Feature", "properties": { "lga_name": "Glenelg" }, "geometry": { "type": "Point", "coordinates": [ 138.513119100000011, -34.980383 ] } },
{ "type": "Feature", "properties": { "lga_name": "Monash" }, "geometry": { "type": "Point", "coordinates": [ 145.1371751, -37.9109574 ] } },
{ "type": "Feature", "properties": { "lga_name": "Moonee Valley" }, "geometry": { "type": "Point", "coordinates": [ 144.9061342, -37.7465015 ] } },
{ "type": "Feature", "properties": { "lga_name": "Moorabool" }, "geometry": { "type": "Point", "coordinates": [ 144.1720041, -37.6334256 ] } },
{ "type": "Feature", "properties": { "lga_name": "Moreland" }, "geometry": { "type": "Point", "coordinates": [ 144.9501708, -37.7240653 ] } },
{ "type": "Feature", "properties": { "lga_name": "Mornington Peninsula" }, "geometry": { "type": "Point", "coordinates": [ 145.093449, -38.2854053 ] } },
{ "type": "Feature", "properties": { "lga_name": "Mount Alexander" }, "geometry": { "type": "Point", "coordinates": [ 144.1720041, -37.0353437 ] } },
{ "type": "Feature", "properties": { "lga_name": "Moyne" }, "geometry": { "type": "Point", "coordinates": [ 142.446547399999986, -38.1886081 ] } },
{ "type": "Feature", "properties": { "lga_name": "Murrindindi" }, "geometry": { "type": "Point", "coordinates": [ 145.580175700000012, -37.3617931 ] } },
{ "type": "Feature", "properties": { "lga_name": "Nillumbik" }, "geometry": { "type": "Point", "coordinates": [ 145.270123500000011, -37.597667 ] } },
{ "type": "Feature", "properties": { "lga_name": "Northern Grampians" }, "geometry": { "type": "Point", "coordinates": [ 142.9599661, -36.9044244 ] } },
{ "type": "Feature", "properties": { "lga_name": "Port Phillip" }, "geometry": { "type": "Point", "coordinates": [ 144.9666905, -37.8464983 ] } },
{ "type": "Feature", "properties": { "lga_name": "Pyrenees" }, "geometry": { "type": "Point", "coordinates": [ 143.4770359, -37.3879637 ] } },
{ "type": "Feature", "properties": { "lga_name": "Queenscliffe" }, "geometry": { "type": "Point", "coordinates": [ 144.6286897, -38.2677746 ] } },
{ "type": "Feature", "properties": { "lga_name": "South Gippsland" }, "geometry": { "type": "Point", "coordinates": [ 146.114225299999987, -38.5884838 ] } },
{ "type": "Feature", "properties": { "lga_name": "Southern Grampians" }, "geometry": { "type": "Point", "coordinates": [ 141.852273, -37.4535972 ] } },
{ "type": "Feature", "properties": { "lga_name": "Stonnington" }, "geometry": { "type": "Point", "coordinates": [ 145.0328017, -37.8595876 ] } },
{ "type": "Feature", "properties": { "lga_name": "Strathbogie" }, "geometry": { "type": "Point", "coordinates": [ 145.7113079, -36.879426 ] } },
{ "type": "Feature", "properties": { "lga_name": "Surf Coast" }, "geometry": { "type": "Point", "coordinates": [ 143.9976775, -38.3128176 ] } },
{ "type": "Feature", "properties": { "lga_name": "Swan Hill" }, "geometry": { "type": "Point", "coordinates": [ 143.552480300000013, -35.3396318 ] } },
{ "type": "Feature", "properties": { "lga_name": "Towong" }, "geometry": { "type": "Point", "coordinates": [ 152.9837482, -27.4842895 ] } },
{ "type": "Feature", "properties": { "lga_name": "Wangaratta" }, "geometry": { "type": "Point", "coordinates": [ 146.31721490000001, -36.3682777 ] } },
{ "type": "Feature", "properties": { "lga_name": "Warrnambool" }, "geometry": { "type": "Point", "coordinates": [ 142.4982086, -38.3686779 ] } },
{ "type": "Feature", "properties": { "lga_name": "Wellington" }, "geometry": { "type": "Point", "coordinates": [ 148.9492902, -32.5520391 ] } },
{ "type": "Feature", "properties": { "lga_name": "West Wimmera" }, "geometry": { "type": "Point", "coordinates": [ 141.179454600000014, -36.6091473 ] } },
{ "type": "Feature", "properties": { "lga_name": "Whitehorse" }, "geometry": { "type": "Point", "coordinates": [ 145.148620599999987, -37.8286371 ] } },
{ "type": "Feature", "properties": { "lga_name": "Whittlesea" }, "geometry": { "type": "Point", "coordinates": [ 145.113889, -37.513889 ] } },
{ "type": "Feature", "properties": { "lga_name": "Wodonga" }, "geometry": { "type": "Point", "coordinates": [ 146.88176390000001, -36.1240938 ] } },
{ "type": "Feature", "properties": { "lga_name": "Wyndham" }, "geometry": { "type": "Point", "coordinates": [ 128.2201144, -15.5846706 ] } },
{ "type": "Feature", "properties": { "lga_name": "Yarra" }, "geometry": { "type": "Point", "coordinates": [ 144.9887218, -37.7979219 ] } },
{ "type": "Feature", "properties": { "lga_name": "Yarra Ranges" }, "geometry": { "type": "Point", "coordinates": [ 145.7133909, -37.7450808 ] } },
{ "type": "Feature", "properties": { "lga_name": "Yarriambiack" }, "geometry": { "type": "Point", "coordinates": [ 142.446547399999986, -35.9703773 ] } },
{ "type": "Feature", "properties": { "lga_name": "Unincorporated Vic" }, "geometry": { "type": "Point", "coordinates": [ 144.7851531, -37.4713077 ] } },
{ "type": "Feature", "properties": { "lga_name": "Alpine" }, "geometry": { "type": "Point", "coordinates": [ 148.6093333, -36.4180762 ] } },
{ "type": "Feature", "properties": { "lga_name": "Ararat" }, "geometry": { "type": "Point", "coordinates": [ 142.9316441, -37.2846464 ] } },
{ "type": "Feature", "properties": { "lga_name": "Ballarat" }, "geometry": { "type": "Point", "coordinates": [ 143.8502556, -37.5621587 ] } },
{ "type": "Feature", "properties": { "lga_name": "Banyule" }, "geometry": { "type": "Point", "coordinates": [ 145.082419, -37.7314254 ] } },
{ "type": "Feature", "properties": { "lga_name": "Bass Coast" }, "geometry": { "type": "Point", "coordinates": [ 145.5358152, -38.5087582 ] } },
{ "type": "Feature", "properties": { "lga_name": "Baw Baw" }, "geometry": { "type": "Point", "coordinates": [ 146.273611100000011, -37.8383333 ] } },
{ "type": "Feature", "properties": { "lga_name": "Bayside" }, "geometry": { "type": "Point", "coordinates": [ 145.016269, -37.9333402 ] } },
{ "type": "Feature", "properties": { "lga_name": "Benalla" }, "geometry": { "type": "Point", "coordinates": [ 145.963353, -36.5462177 ] } },
{ "type": "Feature", "properties": { "lga_name": "Boroondara" }, "geometry": { "type": "Point", "coordinates": [ 145.071390400000013, -37.8119024 ] } },
{ "type": "Feature", "properties": { "lga_name": "Brimbank" }, "geometry": { "type": "Point", "coordinates": [ 144.8071366, -37.7594793 ] } },
{ "type": "Feature", "properties": { "lga_name": "Buloke" }, "geometry": { "type": "Point", "coordinates": [ 143.2180495, -36.1736195 ] } },
{ "type": "Feature", "properties": { "lga_name": "Campaspe" }, "geometry": { "type": "Point", "coordinates": [ 144.6972774, -36.308533 ] } },
{ "type": "Feature", "properties": { "lga_name": "Cardinia" }, "geometry": { "type": "Point", "coordinates": [ 145.580175700000012, -38.1134884 ] } },
{ "type": "Feature", "properties": { "lga_name": "Casey" }, "geometry": { "type": "Point", "coordinates": [ -85.7467891, 38.2480521 ] } },
{ "type": "Feature", "properties": { "lga_name": "Central Goldfields" }, "geometry": { "type": "Point", "coordinates": [ 143.693540500000012, -36.9802447 ] } },
{ "type": "Feature", "properties": { "lga_name": "Colac-Otway" }, "geometry": { "type": "Point", "coordinates": [ 143.6501903, -38.483006 ] } },
{ "type": "Feature", "properties": { "lga_name": "Corangamite" }, "geometry": { "type": "Point", "coordinates": [ 143.146242, -38.232448 ] } },
{ "type": "Feature", "properties": { "lga_name": "Darebin" }, "geometry": { "type": "Point", "coordinates": [ 145.016269, -37.727768 ] } },
{ "type": "Feature", "properties": { "lga_name": "East Gippsland" }, "geometry": { "type": "Point", "coordinates": [ 148.189292099999989, -37.4975957 ] } },
{ "type": "Feature", "properties": { "lga_name": "Frankston" }, "geometry": { "type": "Point", "coordinates": [ 145.135722, -38.1466246 ] } },
{ "type": "Feature", "properties": { "lga_name": "Gannawarra" }, "geometry": { "type": "Point", "coordinates": [ 143.8237385, -35.7052801 ] } },
{ "type": "Feature", "properties": { "lga_name": "Golden Plains" }, "geometry": { "type": "Point", "coordinates": [ -98.2318, 38.730095899999988 ] } },
{ "type": "Feature", "properties": { "lga_name": "Greater Bendigo" }, "geometry": { "type": "Point", "coordinates": [ 144.3467152, -36.7948261 ] } },
{ "type": "Feature", "properties": { "lga_name": "Greater Dandenong" }, "geometry": { "type": "Point", "coordinates": [ 145.2038278, -38.006110799999988 ] } },
{ "type": "Feature", "properties": { "lga_name": "Greater Geelong" }, "geometry": { "type": "Point", "coordinates": [ 144.3904526, -37.9697434 ] } },
{ "type": "Feature", "properties": { "lga_name": "Greater Shepparton" }, "geometry": { "type": "Point", "coordinates": [ 145.402868, -36.3914888 ] } },
{ "type": "Feature", "properties": { "lga_name": "Hepburn" }, "geometry": { "type": "Point", "coordinates": [ 144.125661, -37.3118233 ] } },
{ "type": "Feature", "properties": { "lga_name": "Hindmarsh" }, "geometry": { "type": "Point", "coordinates": [ 138.570272, -34.9058302 ] } },
{ "type": "Feature", "properties": { "lga_name": "Hobsons Bay" }, "geometry": { "type": "Point", "coordinates": [ 144.8401227, -37.8360799 ] } },
{ "type": "Feature", "properties": { "lga_name": "Horsham" }, "geometry": { "type": "Point", "coordinates": [ 142.1962316, -36.7188618 ] } },
{ "type": "Feature", "properties": { "lga_name": "Hume" }, "geometry": { "type": "Point", "coordinates": [ 144.8291259, -37.5986911 ] } },
{ "type": "Feature", "properties": { "lga_name": "Indigo" }, "geometry": { "type": "Point", "coordinates": [ 144.9657817, -37.8155532 ] } },
{ "type": "Feature", "properties": { "lga_name": "Kingston" }, "geometry": { "type": "Point", "coordinates": [ 139.853750100000013, -36.8310818 ] } },
{ "type": "Feature", "properties": { "lga_name": "Knox" }, "geometry": { "type": "Point", "coordinates": [ 145.24801930000001, -37.8714657 ] } },
{ "type": "Feature", "properties": { "lga_name": "Latrobe" }, "geometry": { "type": "Point", "coordinates": [ 145.0483389, -37.7206639 ] } },
{ "type": "Feature", "properties": { "lga_name": "Loddon" }, "geometry": { "type": "Point", "coordinates": [ 143.910659399999986, -36.4175636 ] } },
{ "type": "Feature", "properties": { "lga_name": "Macedon Ranges" }, "geometry": { "type": "Point", "coordinates": [ 144.6972774, -37.3663141 ] } },
{ "type": "Feature", "properties": { "lga_name": "Manningham" }, "geometry": { "type": "Point", "coordinates": [ 145.1596592, -37.7668506 ] } },
{ "type": "Feature", "properties": { "lga_name": "Mansfield" }, "geometry": { "type": "Point", "coordinates": [ 0.0, 0.0 ] } },
{ "type": "Feature", "properties": { "lga_name": "Maribyrnong" }, "geometry": { "type": "Point", "coordinates": [ 144.882080300000013, -37.7695602 ] } },
{ "type": "Feature", "properties": { "lga_name": "Maroondah" }, "geometry": { "type": "Point", "coordinates": [ 145.2590707, -37.80966 ] } },
{ "type": "Feature", "properties": { "lga_name": "Melbourne" }, "geometry": { "type": "Point", "coordinates": [ 144.963057600000013, -37.8136276 ] } },
{ "type": "Feature", "properties": { "lga_name": "Melton" }, "geometry": { "type": "Point", "coordinates": [ 144.5779508, -37.6835831 ] } },
{ "type": "Feature", "properties": { "lga_name": "Mildura" }, "geometry": { "type": "Point", "coordinates": [ 142.1245535, -34.2080167 ] } },
{ "type": "Feature", "properties": { "lga_name": "Mitchell" }, "geometry": { "type": "Point", "coordinates": [ -73.4067147, 41.4136536 ] } },
{ "type": "Feature", "properties": { "lga_name": "Moira" }, "geometry": { "type": "Point", "coordinates": [ 145.2197821, -37.9133846 ] } },
{ "type": "Feature", "properties": { "lga_name": "Glen Eira" }, "geometry": { "type": "Point", "coordinates": [ 145.0383133, -37.9034811 ] } },
{ "type": "Feature", "properties": { "lga_name": "Glenelg" }, "geometry": { "type": "Point", "coordinates": [ 138.513119100000011, -34.980383 ] } },
{ "type": "Feature", "properties": { "lga_name": "Monash" }, "geometry": { "type": "Point", "coordinates": [ 145.1371751, -37.9109574 ] } },
{ "type": "Feature", "properties": { "lga_name": "Moonee Valley" }, "geometry": { "type": "Point", "coordinates": [ 144.9061342, -37.7465015 ] } },
{ "type": "Feature", "properties": { "lga_name": "Moorabool" }, "geometry": { "type": "Point", "coordinates": [ 144.1720041, -37.6334256 ] } },
{ "type": "Feature", "properties": { "lga_name": "Moreland" }, "geometry": { "type": "Point", "coordinates": [ 144.9501708, -37.7240653 ] } },
{ "type": "Feature", "properties": { "lga_name": "Mornington Peninsula" }, "geometry": { "type": "Point", "coordinates": [ 145.093449, -38.2854053 ] } },
{ "type": "Feature", "properties": { "lga_name": "Mount Alexander" }, "geometry": { "type": "Point", "coordinates": [ 144.1720041, -37.0353437 ] } },
{ "type": "Feature", "properties": { "lga_name": "Moyne" }, "geometry": { "type": "Point", "coordinates": [ 142.446547399999986, -38.1886081 ] } },
{ "type": "Feature", "properties": { "lga_name": "Murrindindi" }, "geometry": { "type": "Point", "coordinates": [ 145.580175700000012, -37.3617931 ] } },
{ "type": "Feature", "properties": { "lga_name": "Nillumbik" }, "geometry": { "type": "Point", "coordinates": [ 145.270123500000011, -37.597667 ] } },
{ "type": "Feature", "properties": { "lga_name": "Northern Grampians" }, "geometry": { "type": "Point", "coordinates": [ 142.9599661, -36.9044244 ] } },
{ "type": "Feature", "properties": { "lga_name": "Port Phillip" }, "geometry": { "type": "Point", "coordinates": [ 144.9666905, -37.8464983 ] } },
{ "type": "Feature", "properties": { "lga_name": "Pyrenees" }, "geometry": { "type": "Point", "coordinates": [ 143.4770359, -37.3879637 ] } },
{ "type": "Feature", "properties": { "lga_name": "Queenscliffe" }, "geometry": { "type": "Point", "coordinates": [ 144.6286897, -38.2677746 ] } },
{ "type": "Feature", "properties": { "lga_name": "South Gippsland" }, "geometry": { "type": "Point", "coordinates": [ 146.114225299999987, -38.5884838 ] } },
{ "type": "Feature", "properties": { "lga_name": "Southern Grampians" }, "geometry": { "type": "Point", "coordinates": [ 141.852273, -37.4535972 ] } },
{ "type": "Feature", "properties": { "lga_name": "Stonnington" }, "geometry": { "type": "Point", "coordinates": [ 145.0328017, -37.8595876 ] } },
{ "type": "Feature", "properties": { "lga_name": "Strathbogie" }, "geometry": { "type": "Point", "coordinates": [ 145.7113079, -36.879426 ] } },
{ "type": "Feature", "properties": { "lga_name": "Surf Coast" }, "geometry": { "type": "Point", "coordinates": [ 143.9976775, -38.3128176 ] } },
{ "type": "Feature", "properties": { "lga_name": "Swan Hill" }, "geometry": { "type": "Point", "coordinates": [ 143.552480300000013, -35.3396318 ] } },
{ "type": "Feature", "properties": { "lga_name": "Towong" }, "geometry": { "type": "Point", "coordinates": [ 152.9837482, -27.4842895 ] } },
{ "type": "Feature", "properties": { "lga_name": "Wangaratta" }, "geometry": { "type": "Point", "coordinates": [ 146.31721490000001, -36.3682777 ] } },
{ "type": "Feature", "properties": { "lga_name": "Warrnambool" }, "geometry": { "type": "Point", "coordinates": [ 142.4982086, -38.3686779 ] } },
{ "type": "Feature", "properties": { "lga_name": "Wellington" }, "geometry": { "type": "Point", "coordinates": [ 148.9492902, -32.5520391 ] } },
{ "type": "Feature", "properties": { "lga_name": "West Wimmera" }, "geometry": { "type": "Point", "coordinates": [ 141.179454600000014, -36.6091473 ] } },
{ "type": "Feature", "properties": { "lga_name": "Whitehorse" }, "geometry": { "type": "Point", "coordinates": [ 145.148620599999987, -37.8286371 ] } },
{ "type": "Feature", "properties": { "lga_name": "Whittlesea" }, "geometry": { "type": "Point", "coordinates": [ 145.113889, -37.513889 ] } },
{ "type": "Feature", "properties": { "lga_name": "Wodonga" }, "geometry": { "type": "Point", "coordinates": [ 146.88176390000001, -36.1240938 ] } },
{ "type": "Feature", "properties": { "lga_name": "Wyndham" }, "geometry": { "type": "Point", "coordinates": [ 128.2201144, -15.5846706 ] } },
{ "type": "Feature", "properties": { "lga_name": "Yarra" }, "geometry": { "type": "Point", "coordinates": [ 144.9887218, -37.7979219 ] } },
{ "type": "Feature", "properties": { "lga_name": "Yarra Ranges" }, "geometry": { "type": "Point", "coordinates": [ 145.7133909, -37.7450808 ] } },
{ "type": "Feature", "properties": { "lga_name": "Yarriambiack" }, "geometry": { "type": "Point", "coordinates": [ 142.446547399999986, -35.9703773 ] } },
{ "type": "Feature", "properties": { "lga_name": "Unincorporated Vic" }, "geometry": { "type": "Point", "coordinates": [ 144.7851531, -37.4713077 ] } },
{ "type": "Feature", "properties": { "lga_name": "Alpine" }, "geometry": { "type": "Point", "coordinates": [ 148.6093333, -36.4180762 ] } },
{ "type": "Feature", "properties": { "lga_name": "Ararat" }, "geometry": { "type": "Point", "coordinates": [ 142.9316441, -37.2846464 ] } },
{ "type": "Feature", "properties": { "lga_name": "Ballarat" }, "geometry": { "type": "Point", "coordinates": [ 143.8502556, -37.5621587 ] } },
{ "type": "Feature", "properties": { "lga_name": "Banyule" }, "geometry": { "type": "Point", "coordinates": [ 145.082419, -37.7314254 ] } },
{ "type": "Feature", "properties": { "lga_name": "Bass Coast" }, "geometry": { "type": "Point", "coordinates": [ 145.5358152, -38.5087582 ] } },
{ "type": "Feature", "properties": { "lga_name": "Baw Baw" }, "geometry": { "type": "Point", "coordinates": [ 146.273611100000011, -37.8383333 ] } },
{ "type": "Feature", "properties": { "lga_name": "Bayside" }, "geometry": { "type": "Point", "coordinates": [ 145.016269, -37.9333402 ] } },
{ "type": "Feature", "properties": { "lga_name": "Benalla" }, "geometry": { "type": "Point", "coordinates": [ 145.963353, -36.5462177 ] } },
{ "type": "Feature", "properties": { "lga_name": "Boroondara" }, "geometry": { "type": "Point", "coordinates": [ 145.071390400000013, -37.8119024 ] } },
{ "type": "Feature", "properties": { "lga_name": "Brimbank" }, "geometry": { "type": "Point", "coordinates": [ 144.8071366, -37.7594793 ] } },
{ "type": "Feature", "properties": { "lga_name": "Buloke" }, "geometry": { "type": "Point", "coordinates": [ 143.2180495, -36.1736195 ] } },
{ "type": "Feature", "properties": { "lga_name": "Campaspe" }, "geometry": { "type": "Point", "coordinates": [ 144.6972774, -36.308533 ] } },
{ "type": "Feature", "properties": { "lga_name": "Cardinia" }, "geometry": { "type": "Point", "coordinates": [ 145.580175700000012, -38.1134884 ] } },
{ "type": "Feature", "properties": { "lga_name": "Casey" }, "geometry": { "type": "Point", "coordinates": [ -85.7467891, 38.2480521 ] } },
{ "type": "Feature", "properties": { "lga_name": "Central Goldfields" }, "geometry": { "type": "Point", "coordinates": [ 143.693540500000012, -36.9802447 ] } },
{ "type": "Feature", "properties": { "lga_name": "Colac-Otway" }, "geometry": { "type": "Point", "coordinates": [ 143.6501903, -38.483006 ] } },
{ "type": "Feature", "properties": { "lga_name": "Corangamite" }, "geometry": { "type": "Point", "coordinates": [ 143.146242, -38.232448 ] } },
{ "type": "Feature", "properties": { "lga_name": "Darebin" }, "geometry": { "type": "Point", "coordinates": [ 145.016269, -37.727768 ] } },
{ "type": "Feature", "properties": { "lga_name": "East Gippsland" }, "geometry": { "type": "Point", "coordinates": [ 148.189292099999989, -37.4975957 ] } },
{ "type": "Feature", "properties": { "lga_name": "Frankston" }, "geometry": { "type": "Point", "coordinates": [ 145.135722, -38.1466246 ] } },
{ "type": "Feature", "properties": { "lga_name": "Gannawarra" }, "geometry": { "type": "Point", "coordinates": [ 143.8237385, -35.7052801 ] } },
{ "type": "Feature", "properties": { "lga_name": "Golden Plains" }, "geometry": { "type": "Point", "coordinates": [ -98.2318, 38.730095899999988 ] } },
{ "type": "Feature", "properties": { "lga_name": "Greater Bendigo" }, "geometry": { "type": "Point", "coordinates": [ 144.3467152, -36.7948261 ] } },
{ "type": "Feature", "properties": { "lga_name": "Greater Dandenong" }, "geometry": { "type": "Point", "coordinates": [ 145.2038278, -38.006110799999988 ] } },
{ "type": "Feature", "properties": { "lga_name": "Greater Geelong" }, "geometry": { "type": "Point", "coordinates": [ 144.3904526, -37.9697434 ] } },
{ "type": "Feature", "properties": { "lga_name": "Greater Shepparton" }, "geometry": { "type": "Point", "coordinates": [ 145.402868, -36.3914888 ] } },
{ "type": "Feature", "properties": { "lga_name": "Hepburn" }, "geometry": { "type": "Point", "coordinates": [ 144.125661, -37.3118233 ] } },
{ "type": "Feature", "properties": { "lga_name": "Hindmarsh" }, "geometry": { "type": "Point", "coordinates": [ 138.570272, -34.9058302 ] } },
{ "type": "Feature", "properties": { "lga_name": "Hobsons Bay" }, "geometry": { "type": "Point", "coordinates": [ 144.8401227, -37.8360799 ] } },
{ "type": "Feature", "properties": { "lga_name": "Horsham" }, "geometry": { "type": "Point", "coordinates": [ 142.1962316, -36.7188618 ] } },
{ "type": "Feature", "properties": { "lga_name": "Hume" }, "geometry": { "type": "Point", "coordinates": [ 144.8291259, -37.5986911 ] } },
{ "type": "Feature", "properties": { "lga_name": "Indigo" }, "geometry": { "type": "Point", "coordinates": [ 144.9657817, -37.8155532 ] } },
{ "type": "Feature", "properties": { "lga_name": "Kingston" }, "geometry": { "type": "Point", "coordinates": [ 139.853750100000013, -36.8310818 ] } },
{ "type": "Feature", "properties": { "lga_name": "Knox" }, "geometry": { "type": "Point", "coordinates": [ 145.24801930000001, -37.8714657 ] } },
{ "type": "Feature", "properties": { "lga_name": "Latrobe" }, "geometry": { "type": "Point", "coordinates": [ 145.0483389, -37.7206639 ] } },
{ "type": "Feature", "properties": { "lga_name": "Loddon" }, "geometry": { "type": "Point", "coordinates": [ 143.910659399999986, -36.4175636 ] } },
{ "type": "Feature", "properties": { "lga_name": "Macedon Ranges" }, "geometry": { "type": "Point", "coordinates": [ 144.6972774, -37.3663141 ] } },
{ "type": "Feature", "properties": { "lga_name": "Manningham" }, "geometry": { "type": "Point", "coordinates": [ 145.1596592, -37.7668506 ] } },
{ "type": "Feature", "properties": { "lga_name": "Mansfield" }, "geometry": { "type": "Point", "coordinates": [ 0.0, 0.0 ] } },
{ "type": "Feature", "properties": { "lga_name": "Maribyrnong" }, "geometry": { "type": "Point", "coordinates": [ 144.882080300000013, -37.7695602 ] } },
{ "type": "Feature", "properties": { "lga_name": "Maroondah" }, "geometry": { "type": "Point", "coordinates": [ 145.2590707, -37.80966 ] } },
{ "type": "Feature", "properties": { "lga_name": "Melbourne" }, "geometry": { "type": "Point", "coordinates": [ 144.963057600000013, -37.8136276 ] } },
{ "type": "Feature", "properties": { "lga_name": "Melton" }, "geometry": { "type": "Point", "coordinates": [ 144.5779508, -37.6835831 ] } },
{ "type": "Feature", "properties": { "lga_name": "Mildura" }, "geometry": { "type": "Point", "coordinates": [ 142.1245535, -34.2080167 ] } },
{ "type": "Feature", "properties": { "lga_name": "Mitchell" }, "geometry": { "type": "Point", "coordinates": [ -73.4067147, 41.4136536 ] } },
{ "type": "Feature", "properties": { "lga_name": "Moira" }, "geometry": { "type": "Point", "coordinates": [ 145.2197821, -37.9133846 ] } },
{ "type": "Feature", "properties": { "lga_name": "Glen Eira" }, "geometry": { "type": "Point", "coordinates": [ 145.0383133, -37.9034811 ] } },
{ "type": "Feature", "properties": { "lga_name": "Glenelg" }, "geometry": { "type": "Point", "coordinates": [ 138.513119100000011, -34.980383 ] } },
{ "type": "Feature", "properties": { "lga_name": "Monash" }, "geometry": { "type": "Point", "coordinates": [ 145.1371751, -37.9109574 ] } },
{ "type": "Feature", "properties": { "lga_name": "Moonee Valley" }, "geometry": { "type": "Point", "coordinates": [ 144.9061342, -37.7465015 ] } },
{ "type": "Feature", "properties": { "lga_name": "Moorabool" }, "geometry": { "type": "Point", "coordinates": [ 144.1720041, -37.6334256 ] } },
{ "type": "Feature", "properties": { "lga_name": "Moreland" }, "geometry": { "type": "Point", "coordinates": [ 144.9501708, -37.7240653 ] } },
{ "type": "Feature", "properties": { "lga_name": "Mornington Peninsula" }, "geometry": { "type": "Point", "coordinates": [ 145.093449, -38.2854053 ] } },
{ "type": "Feature", "properties": { "lga_name": "Mount Alexander" }, "geometry": { "type": "Point", "coordinates": [ 144.1720041, -37.0353437 ] } },
{ "type": "Feature", "properties": { "lga_name": "Moyne" }, "geometry": { "type": "Point", "coordinates": [ 142.446547399999986, -38.1886081 ] } },
{ "type": "Feature", "properties": { "lga_name": "Murrindindi" }, "geometry": { "type": "Point", "coordinates": [ 145.580175700000012, -37.3617931 ] } },
{ "type": "Feature", "properties": { "lga_name": "Nillumbik" }, "geometry": { "type": "Point", "coordinates": [ 145.270123500000011, -37.597667 ] } },
{ "type": "Feature", "properties": { "lga_name": "Northern Grampians" }, "geometry": { "type": "Point", "coordinates": [ 142.9599661, -36.9044244 ] } },
{ "type": "Feature", "properties": { "lga_name": "Port Phillip" }, "geometry": { "type": "Point", "coordinates": [ 144.9666905, -37.8464983 ] } },
{ "type": "Feature", "properties": { "lga_name": "Pyrenees" }, "geometry": { "type": "Point", "coordinates": [ 143.4770359, -37.3879637 ] } },
{ "type": "Feature", "properties": { "lga_name": "Queenscliffe" }, "geometry": { "type": "Point", "coordinates": [ 144.6286897, -38.2677746 ] } },
{ "type": "Feature", "properties": { "lga_name": "South Gippsland" }, "geometry": { "type": "Point", "coordinates": [ 146.114225299999987, -38.5884838 ] } },
{ "type": "Feature", "properties": { "lga_name": "Southern Grampians" }, "geometry": { "type": "Point", "coordinates": [ 141.852273, -37.4535972 ] } },
{ "type": "Feature", "properties": { "lga_name": "Stonnington" }, "geometry": { "type": "Point", "coordinates": [ 145.0328017, -37.8595876 ] } },
{ "type": "Feature", "properties": { "lga_name": "Strathbogie" }, "geometry": { "type": "Point", "coordinates": [ 145.7113079, -36.879426 ] } },
{ "type": "Feature", "properties": { "lga_name": "Surf Coast" }, "geometry": { "type": "Point", "coordinates": [ 143.9976775, -38.3128176 ] } },
{ "type": "Feature", "properties": { "lga_name": "Swan Hill" }, "geometry": { "type": "Point", "coordinates": [ 143.552480300000013, -35.3396318 ] } },
{ "type": "Feature", "properties": { "lga_name": "Towong" }, "geometry": { "type": "Point", "coordinates": [ 152.9837482, -27.4842895 ] } },
{ "type": "Feature", "properties": { "lga_name": "Wangaratta" }, "geometry": { "type": "Point", "coordinates": [ 146.31721490000001, -36.3682777 ] } },
{ "type": "Feature", "properties": { "lga_name": "Warrnambool" }, "geometry": { "type": "Point", "coordinates": [ 142.4982086, -38.3686779 ] } },
{ "type": "Feature", "properties": { "lga_name": "Wellington" }, "geometry": { "type": "Point", "coordinates": [ 148.9492902, -32.5520391 ] } },
{ "type": "Feature", "properties": { "lga_name": "West Wimmera" }, "geometry": { "type": "Point", "coordinates": [ 141.179454600000014, -36.6091473 ] } },
{ "type": "Feature", "properties": { "lga_name": "Whitehorse" }, "geometry": { "type": "Point", "coordinates": [ 145.148620599999987, -37.8286371 ] } },
{ "type": "Feature", "properties": { "lga_name": "Whittlesea" }, "geometry": { "type": "Point", "coordinates": [ 145.113889, -37.513889 ] } },
{ "type": "Feature", "properties": { "lga_name": "Wodonga" }, "geometry": { "type": "Point", "coordinates": [ 146.88176390000001, -36.1240938 ] } },
{ "type": "Feature", "properties": { "lga_name": "Wyndham" }, "geometry": { "type": "Point", "coordinates": [ 128.2201144, -15.5846706 ] } },
{ "type": "Feature", "properties": { "lga_name": "Yarra" }, "geometry": { "type": "Point", "coordinates": [ 144.9887218, -37.7979219 ] } },
{ "type": "Feature", "properties": { "lga_name": "Yarra Ranges" }, "geometry": { "type": "Point", "coordinates": [ 145.7133909, -37.7450808 ] } },
{ "type": "Feature", "properties": { "lga_name": "Yarriambiack" }, "geometry": { "type": "Point", "coordinates": [ 142.446547399999986, -35.9703773 ] } },
{ "type": "Feature", "properties": { "lga_name": "Unincorporated Vic" }, "geometry": { "type": "Point", "coordinates": [ 144.7851531, -37.4713077 ] } },
{ "type": "Feature", "properties": { "lga_name": "Alpine" }, "geometry": { "type": "Point", "coordinates": [ 148.6093333, -36.4180762 ] } },
{ "type": "Feature", "properties": { "lga_name": "Ararat" }, "geometry": { "type": "Point", "coordinates": [ 142.9316441, -37.2846464 ] } },
{ "type": "Feature", "properties": { "lga_name": "Ballarat" }, "geometry": { "type": "Point", "coordinates": [ 143.8502556, -37.5621587 ] } },
{ "type": "Feature", "properties": { "lga_name": "Banyule" }, "geometry": { "type": "Point", "coordinates": [ 145.082419, -37.7314254 ] } },
{ "type": "Feature", "properties": { "lga_name": "Bass Coast" }, "geometry": { "type": "Point", "coordinates": [ 145.5358152, -38.5087582 ] } },
{ "type": "Feature", "properties": { "lga_name": "Baw Baw" }, "geometry": { "type": "Point", "coordinates": [ 146.273611100000011, -37.8383333 ] } },
{ "type": "Feature", "properties": { "lga_name": "Bayside" }, "geometry": { "type": "Point", "coordinates": [ 145.016269, -37.9333402 ] } },
{ "type": "Feature", "properties": { "lga_name": "Benalla" }, "geometry": { "type": "Point", "coordinates": [ 145.963353, -36.5462177 ] } },
{ "type": "Feature", "properties": { "lga_name": "Boroondara" }, "geometry": { "type": "Point", "coordinates": [ 145.071390400000013, -37.8119024 ] } },
{ "type": "Feature", "properties": { "lga_name": "Brimbank" }, "geometry": { "type": "Point", "coordinates": [ 144.8071366, -37.7594793 ] } },
{ "type": "Feature", "properties": { "lga_name": "Buloke" }, "geometry": { "type": "Point", "coordinates": [ 143.2180495, -36.1736195 ] } },
{ "type": "Feature", "properties": { "lga_name": "Campaspe" }, "geometry": { "type": "Point", "coordinates": [ 144.6972774, -36.308533 ] } },
{ "type": "Feature", "properties": { "lga_name": "Cardinia" }, "geometry": { "type": "Point", "coordinates": [ 145.580175700000012, -38.1134884 ] } },
{ "type": "Feature", "properties": { "lga_name": "Casey" }, "geometry": { "type": "Point", "coordinates": [ -85.7467891, 38.2480521 ] } },
{ "type": "Feature", "properties": { "lga_name": "Central Goldfields" }, "geometry": { "type": "Point", "coordinates": [ 143.693540500000012, -36.9802447 ] } },
{ "type": "Feature", "properties": { "lga_name": "Colac-Otway" }, "geometry": { "type": "Point", "coordinates": [ 143.6501903, -38.483006 ] } },
{ "type": "Feature", "properties": { "lga_name": "Corangamite" }, "geometry": { "type": "Point", "coordinates": [ 143.146242, -38.232448 ] } },
{ "type": "Feature", "properties": { "lga_name": "Darebin" }, "geometry": { "type": "Point", "coordinates": [ 145.016269, -37.727768 ] } },
{ "type": "Feature", "properties": { "lga_name": "East Gippsland" }, "geometry": { "type": "Point", "coordinates": [ 148.189292099999989, -37.4975957 ] } },
{ "type": "Feature", "properties": { "lga_name": "Frankston" }, "geometry": { "type": "Point", "coordinates": [ 145.135722, -38.1466246 ] } },
{ "type": "Feature", "properties": { "lga_name": "Gannawarra" }, "geometry": { "type": "Point", "coordinates": [ 143.8237385, -35.7052801 ] } },
{ "type": "Feature", "properties": { "lga_name": "Golden Plains" }, "geometry": { "type": "Point", "coordinates": [ -98.2318, 38.730095899999988 ] } },
{ "type": "Feature", "properties": { "lga_name": "Greater Bendigo" }, "geometry": { "type": "Point", "coordinates": [ 144.3467152, -36.7948261 ] } },
{ "type": "Feature", "properties": { "lga_name": "Greater Dandenong" }, "geometry": { "type": "Point", "coordinates": [ 145.2038278, -38.006110799999988 ] } },
{ "type": "Feature", "properties": { "lga_name": "Greater Geelong" }, "geometry": { "type": "Point", "coordinates": [ 144.3904526, -37.9697434 ] } },
{ "type": "Feature", "properties": { "lga_name": "Greater Shepparton" }, "geometry": { "type": "Point", "coordinates": [ 145.402868, -36.3914888 ] } },
{ "type": "Feature", "properties": { "lga_name": "Hepburn" }, "geometry": { "type": "Point", "coordinates": [ 144.125661, -37.3118233 ] } },
{ "type": "Feature", "properties": { "lga_name": "Hindmarsh" }, "geometry": { "type": "Point", "coordinates": [ 138.570272, -34.9058302 ] } },
{ "type": "Feature", "properties": { "lga_name": "Hobsons Bay" }, "geometry": { "type": "Point", "coordinates": [ 144.8401227, -37.8360799 ] } },
{ "type": "Feature", "properties": { "lga_name": "Horsham" }, "geometry": { "type": "Point", "coordinates": [ 142.1962316, -36.7188618 ] } },
{ "type": "Feature", "properties": { "lga_name": "Hume" }, "geometry": { "type": "Point", "coordinates": [ 144.8291259, -37.5986911 ] } },
{ "type": "Feature", "properties": { "lga_name": "Indigo" }, "geometry": { "type": "Point", "coordinates": [ 144.9657817, -37.8155532 ] } },
{ "type": "Feature", "properties": { "lga_name": "Kingston" }, "geometry": { "type": "Point", "coordinates": [ 139.853750100000013, -36.8310818 ] } },
{ "type": "Feature", "properties": { "lga_name": "Knox" }, "geometry": { "type": "Point", "coordinates": [ 145.24801930000001, -37.8714657 ] } },
{ "type": "Feature", "properties": { "lga_name": "Latrobe" }, "geometry": { "type": "Point", "coordinates": [ 145.0483389, -37.7206639 ] } },
{ "type": "Feature", "properties": { "lga_name": "Loddon" }, "geometry": { "type": "Point", "coordinates": [ 143.910659399999986, -36.4175636 ] } },
{ "type": "Feature", "properties": { "lga_name": "Macedon Ranges" }, "geometry": { "type": "Point", "coordinates": [ 144.6972774, -37.3663141 ] } },
{ "type": "Feature", "properties": { "lga_name": "Manningham" }, "geometry": { "type": "Point", "coordinates": [ 145.1596592, -37.7668506 ] } },
{ "type": "Feature", "properties": { "lga_name": "Mansfield" }, "geometry": { "type": "Point", "coordinates": [ 0.0, 0.0 ] } },
{ "type": "Feature", "properties": { "lga_name": "Maribyrnong" }, "geometry": { "type": "Point", "coordinates": [ 144.882080300000013, -37.7695602 ] } },
{ "type": "Feature", "properties": { "lga_name": "Maroondah" }, "geometry": { "type": "Point", "coordinates": [ 145.2590707, -37.80966 ] } },
{ "type": "Feature", "properties": { "lga_name": "Melbourne" }, "geometry": { "type": "Point", "coordinates": [ 144.963057600000013, -37.8136276 ] } },
{ "type": "Feature", "properties": { "lga_name": "Melton" }, "geometry": { "type": "Point", "coordinates": [ 144.5779508, -37.6835831 ] } },
{ "type": "Feature", "properties": { "lga_name": "Mildura" }, "geometry": { "type": "Point", "coordinates": [ 142.1245535, -34.2080167 ] } },
{ "type": "Feature", "properties": { "lga_name": "Mitchell" }, "geometry": { "type": "Point", "coordinates": [ -73.4067147, 41.4136536 ] } },
{ "type": "Feature", "properties": { "lga_name": "Moira" }, "geometry": { "type": "Point", "coordinates": [ 145.2197821, -37.9133846 ] } },
{ "type": "Feature", "properties": { "lga_name": "Glen Eira" }, "geometry": { "type": "Point", "coordinates": [ 145.0383133, -37.9034811 ] } },
{ "type": "Feature", "properties": { "lga_name": "Glenelg" }, "geometry": { "type": "Point", "coordinates": [ 138.513119100000011, -34.980383 ] } },
{ "type": "Feature", "properties": { "lga_name": "Monash" }, "geometry": { "type": "Point", "coordinates": [ 145.1371751, -37.9109574 ] } },
{ "type": "Feature", "properties": { "lga_name": "Moonee Valley" }, "geometry": { "type": "Point", "coordinates": [ 144.9061342, -37.7465015 ] } },
{ "type": "Feature", "properties": { "lga_name": "Moorabool" }, "geometry": { "type": "Point", "coordinates": [ 144.1720041, -37.6334256 ] } },
{ "type": "Feature", "properties": { "lga_name": "Moreland" }, "geometry": { "type": "Point", "coordinates": [ 144.9501708, -37.7240653 ] } },
{ "type": "Feature", "properties": { "lga_name": "Mornington Peninsula" }, "geometry": { "type": "Point", "coordinates": [ 145.093449, -38.2854053 ] } },
{ "type": "Feature", "properties": { "lga_name": "Mount Alexander" }, "geometry": { "type": "Point", "coordinates": [ 144.1720041, -37.0353437 ] } },
{ "type": "Feature", "properties": { "lga_name": "Moyne" }, "geometry": { "type": "Point", "coordinates": [ 142.446547399999986, -38.1886081 ] } },
{ "type": "Feature", "properties": { "lga_name": "Murrindindi" }, "geometry": { "type": "Point", "coordinates": [ 145.580175700000012, -37.3617931 ] } },
{ "type": "Feature", "properties": { "lga_name": "Nillumbik" }, "geometry": { "type": "Point", "coordinates": [ 145.270123500000011, -37.597667 ] } },
{ "type": "Feature", "properties": { "lga_name": "Northern Grampians" }, "geometry": { "type": "Point", "coordinates": [ 142.9599661, -36.9044244 ] } },
{ "type": "Feature", "properties": { "lga_name": "Port Phillip" }, "geometry": { "type": "Point", "coordinates": [ 144.9666905, -37.8464983 ] } },
{ "type": "Feature", "properties": { "lga_name": "Pyrenees" }, "geometry": { "type": "Point", "coordinates": [ 143.4770359, -37.3879637 ] } },
{ "type": "Feature", "properties": { "lga_name": "Queenscliffe" }, "geometry": { "type": "Point", "coordinates": [ 144.6286897, -38.2677746 ] } },
{ "type": "Feature", "properties": { "lga_name": "South Gippsland" }, "geometry": { "type": "Point", "coordinates": [ 146.114225299999987, -38.5884838 ] } },
{ "type": "Feature", "properties": { "lga_name": "Southern Grampians" }, "geometry": { "type": "Point", "coordinates": [ 141.852273, -37.4535972 ] } },
{ "type": "Feature", "properties": { "lga_name": "Stonnington" }, "geometry": { "type": "Point", "coordinates": [ 145.0328017, -37.8595876 ] } },
{ "type": "Feature", "properties": { "lga_name": "Strathbogie" }, "geometry": { "type": "Point", "coordinates": [ 145.7113079, -36.879426 ] } },
{ "type": "Feature", "properties": { "lga_name": "Surf Coast" }, "geometry": { "type": "Point", "coordinates": [ 143.9976775, -38.3128176 ] } },
{ "type": "Feature", "properties": { "lga_name": "Swan Hill" }, "geometry": { "type": "Point", "coordinates": [ 143.552480300000013, -35.3396318 ] } },
{ "type": "Feature", "properties": { "lga_name": "Towong" }, "geometry": { "type": "Point", "coordinates": [ 152.9837482, -27.4842895 ] } },
{ "type": "Feature", "properties": { "lga_name": "Wangaratta" }, "geometry": { "type": "Point", "coordinates": [ 146.31721490000001, -36.3682777 ] } },
{ "type": "Feature", "properties": { "lga_name": "Warrnambool" }, "geometry": { "type": "Point", "coordinates": [ 142.4982086, -38.3686779 ] } },
{ "type": "Feature", "properties": { "lga_name": "Wellington" }, "geometry": { "type": "Point", "coordinates": [ 148.9492902, -32.5520391 ] } },
{ "type": "Feature", "properties": { "lga_name": "West Wimmera" }, "geometry": { "type": "Point", "coordinates": [ 141.179454600000014, -36.6091473 ] } },
{ "type": "Feature", "properties": { "lga_name": "Whitehorse" }, "geometry": { "type": "Point", "coordinates": [ 145.148620599999987, -37.8286371 ] } },
{ "type": "Feature", "properties": { "lga_name": "Whittlesea" }, "geometry": { "type": "Point", "coordinates": [ 145.113889, -37.513889 ] } },
{ "type": "Feature", "properties": { "lga_name": "Wodonga" }, "geometry": { "type": "Point", "coordinates": [ 146.88176390000001, -36.1240938 ] } },
{ "type": "Feature", "properties": { "lga_name": "Wyndham" }, "geometry": { "type": "Point", "coordinates": [ 128.2201144, -15.5846706 ] } },
{ "type": "Feature", "properties": { "lga_name": "Yarra" }, "geometry": { "type": "Point", "coordinates": [ 144.9887218, -37.7979219 ] } },
{ "type": "Feature", "properties": { "lga_name": "Yarra Ranges" }, "geometry": { "type": "Point", "coordinates": [ 145.7133909, -37.7450808 ] } },
{ "type": "Feature", "properties": { "lga_name": "Yarriambiack" }, "geometry": { "type": "Point", "coordinates": [ 142.446547399999986, -35.9703773 ] } },
{ "type": "Feature", "properties": { "lga_name": "Unincorporated Vic" }, "geometry": { "type": "Point", "coordinates": [ 144.7851531, -37.4713077 ] } },
{ "type": "Feature", "properties": { "lga_name": "Alpine" }, "geometry": { "type": "Point", "coordinates": [ 148.6093333, -36.4180762 ] } },
{ "type": "Feature", "properties": { "lga_name": "Ararat" }, "geometry": { "type": "Point", "coordinates": [ 142.9316441, -37.2846464 ] } },
{ "type": "Feature", "properties": { "lga_name": "Ballarat" }, "geometry": { "type": "Point", "coordinates": [ 143.8502556, -37.5621587 ] } },
{ "type": "Feature", "properties": { "lga_name": "Banyule" }, "geometry": { "type": "Point", "coordinates": [ 145.082419, -37.7314254 ] } },
{ "type": "Feature", "properties": { "lga_name": "Bass Coast" }, "geometry": { "type": "Point", "coordinates": [ 145.5358152, -38.5087582 ] } },
{ "type": "Feature", "properties": { "lga_name": "Baw Baw" }, "geometry": { "type": "Point", "coordinates": [ 146.273611100000011, -37.8383333 ] } },
{ "type": "Feature", "properties": { "lga_name": "Bayside" }, "geometry": { "type": "Point", "coordinates": [ 145.016269, -37.9333402 ] } },
{ "type": "Feature", "properties": { "lga_name": "Benalla" }, "geometry": { "type": "Point", "coordinates": [ 145.963353, -36.5462177 ] } },
{ "type": "Feature", "properties": { "lga_name": "Boroondara" }, "geometry": { "type": "Point", "coordinates": [ 145.071390400000013, -37.8119024 ] } },
{ "type": "Feature", "properties": { "lga_name": "Brimbank" }, "geometry": { "type": "Point", "coordinates": [ 144.8071366, -37.7594793 ] } },
{ "type": "Feature", "properties": { "lga_name": "Buloke" }, "geometry": { "type": "Point", "coordinates": [ 143.2180495, -36.1736195 ] } },
{ "type": "Feature", "properties": { "lga_name": "Campaspe" }, "geometry": { "type": "Point", "coordinates": [ 144.6972774, -36.308533 ] } },
{ "type": "Feature", "properties": { "lga_name": "Cardinia" }, "geometry": { "type": "Point", "coordinates": [ 145.580175700000012, -38.1134884 ] } },
{ "type": "Feature", "properties": { "lga_name": "Casey" }, "geometry": { "type": "Point", "coordinates": [ -85.7467891, 38.2480521 ] } },
{ "type": "Feature", "properties": { "lga_name": "Central Goldfields" }, "geometry": { "type": "Point", "coordinates": [ 143.693540500000012, -36.9802447 ] } },
{ "type": "Feature", "properties": { "lga_name": "Colac-Otway" }, "geometry": { "type": "Point", "coordinates": [ 143.6501903, -38.483006 ] } },
{ "type": "Feature", "properties": { "lga_name": "Corangamite" }, "geometry": { "type": "Point", "coordinates": [ 143.146242, -38.232448 ] } },
{ "type": "Feature", "properties": { "lga_name": "Darebin" }, "geometry": { "type": "Point", "coordinates": [ 145.016269, -37.727768 ] } },
{ "type": "Feature", "properties": { "lga_name": "East Gippsland" }, "geometry": { "type": "Point", "coordinates": [ 148.189292099999989, -37.4975957 ] } },
{ "type": "Feature", "properties": { "lga_name": "Frankston" }, "geometry": { "type": "Point", "coordinates": [ 145.135722, -38.1466246 ] } },
{ "type": "Feature", "properties": { "lga_name": "Gannawarra" }, "geometry": { "type": "Point", "coordinates": [ 143.8237385, -35.7052801 ] } },
{ "type": "Feature", "properties": { "lga_name": "Golden Plains" }, "geometry": { "type": "Point", "coordinates": [ -98.2318, 38.730095899999988 ] } },
{ "type": "Feature", "properties": { "lga_name": "Greater Bendigo" }, "geometry": { "type": "Point", "coordinates": [ 144.3467152, -36.7948261 ] } },
{ "type": "Feature", "properties": { "lga_name": "Greater Dandenong" }, "geometry": { "type": "Point", "coordinates": [ 145.2038278, -38.006110799999988 ] } },
{ "type": "Feature", "properties": { "lga_name": "Greater Geelong" }, "geometry": { "type": "Point", "coordinates": [ 144.3904526, -37.9697434 ] } },
{ "type": "Feature", "properties": { "lga_name": "Greater Shepparton" }, "geometry": { "type": "Point", "coordinates": [ 145.402868, -36.3914888 ] } },
{ "type": "Feature", "properties": { "lga_name": "Hepburn" }, "geometry": { "type": "Point", "coordinates": [ 144.125661, -37.3118233 ] } },
{ "type": "Feature", "properties": { "lga_name": "Hindmarsh" }, "geometry": { "type": "Point", "coordinates": [ 138.570272, -34.9058302 ] } },
{ "type": "Feature", "properties": { "lga_name": "Hobsons Bay" }, "geometry": { "type": "Point", "coordinates": [ 144.8401227, -37.8360799 ] } },
{ "type": "Feature", "properties": { "lga_name": "Horsham" }, "geometry": { "type": "Point", "coordinates": [ 142.1962316, -36.7188618 ] } },
{ "type": "Feature", "properties": { "lga_name": "Hume" }, "geometry": { "type": "Point", "coordinates": [ 144.8291259, -37.5986911 ] } },
{ "type": "Feature", "properties": { "lga_name": "Indigo" }, "geometry": { "type": "Point", "coordinates": [ 144.9657817, -37.8155532 ] } },
{ "type": "Feature", "properties": { "lga_name": "Kingston" }, "geometry": { "type": "Point", "coordinates": [ 139.853750100000013, -36.8310818 ] } },
{ "type": "Feature", "properties": { "lga_name": "Knox" }, "geometry": { "type": "Point", "coordinates": [ 145.24801930000001, -37.8714657 ] } },
{ "type": "Feature", "properties": { "lga_name": "Latrobe" }, "geometry": { "type": "Point", "coordinates": [ 145.0483389, -37.7206639 ] } },
{ "type": "Feature", "properties": { "lga_name": "Loddon" }, "geometry": { "type": "Point", "coordinates": [ 143.910659399999986, -36.4175636 ] } },
{ "type": "Feature", "properties": { "lga_name": "Macedon Ranges" }, "geometry": { "type": "Point", "coordinates": [ 144.6972774, -37.3663141 ] } },
{ "type": "Feature", "properties": { "lga_name": "Manningham" }, "geometry": { "type": "Point", "coordinates": [ 145.1596592, -37.7668506 ] } },
{ "type": "Feature", "properties": { "lga_name": "Mansfield" }, "geometry": { "type": "Point", "coordinates": [ 0.0, 0.0 ] } },
{ "type": "Feature", "properties": { "lga_name": "Maribyrnong" }, "geometry": { "type": "Point", "coordinates": [ 144.882080300000013, -37.7695602 ] } },
{ "type": "Feature", "properties": { "lga_name": "Maroondah" }, "geometry": { "type": "Point", "coordinates": [ 145.2590707, -37.80966 ] } },
{ "type": "Feature", "properties": { "lga_name": "Melbourne" }, "geometry": { "type": "Point", "coordinates": [ 144.963057600000013, -37.8136276 ] } },
{ "type": "Feature", "properties": { "lga_name": "Melton" }, "geometry": { "type": "Point", "coordinates": [ 144.5779508, -37.6835831 ] } },
{ "type": "Feature", "properties": { "lga_name": "Mildura" }, "geometry": { "type": "Point", "coordinates": [ 142.1245535, -34.2080167 ] } },
{ "type": "Feature", "properties": { "lga_name": "Mitchell" }, "geometry": { "type": "Point", "coordinates": [ -73.4067147, 41.4136536 ] } },
{ "type": "Feature", "properties": { "lga_name": "Moira" }, "geometry": { "type": "Point", "coordinates": [ 145.2197821, -37.9133846 ] } },
{ "type": "Feature", "properties": { "lga_name": "Glen Eira" }, "geometry": { "type": "Point", "coordinates": [ 145.0383133, -37.9034811 ] } },
{ "type": "Feature", "properties": { "lga_name": "Glenelg" }, "geometry": { "type": "Point", "coordinates": [ 138.513119100000011, -34.980383 ] } },
{ "type": "Feature", "properties": { "lga_name": "Monash" }, "geometry": { "type": "Point", "coordinates": [ 145.1371751, -37.9109574 ] } },
{ "type": "Feature", "properties": { "lga_name": "Moonee Valley" }, "geometry": { "type": "Point", "coordinates": [ 144.9061342, -37.7465015 ] } },
{ "type": "Feature", "properties": { "lga_name": "Moorabool" }, "geometry": { "type": "Point", "coordinates": [ 144.1720041, -37.6334256 ] } },
{ "type": "Feature", "properties": { "lga_name": "Moreland" }, "geometry": { "type": "Point", "coordinates": [ 144.9501708, -37.7240653 ] } },
{ "type": "Feature", "properties": { "lga_name": "Mornington Peninsula" }, "geometry": { "type": "Point", "coordinates": [ 145.093449, -38.2854053 ] } },
{ "type": "Feature", "properties": { "lga_name": "Mount Alexander" }, "geometry": { "type": "Point", "coordinates": [ 144.1720041, -37.0353437 ] } },
{ "type": "Feature", "properties": { "lga_name": "Moyne" }, "geometry": { "type": "Point", "coordinates": [ 142.446547399999986, -38.1886081 ] } },
{ "type": "Feature", "properties": { "lga_name": "Murrindindi" }, "geometry": { "type": "Point", "coordinates": [ 145.580175700000012, -37.3617931 ] } },
{ "type": "Feature", "properties": { "lga_name": "Nillumbik" }, "geometry": { "type": "Point", "coordinates": [ 145.270123500000011, -37.597667 ] } },
{ "type": "Feature", "properties": { "lga_name": "Northern Grampians" }, "geometry": { "type": "Point", "coordinates": [ 142.9599661, -36.9044244 ] } },
{ "type": "Feature", "properties": { "lga_name": "Port Phillip" }, "geometry": { "type": "Point", "coordinates": [ 144.9666905, -37.8464983 ] } },
{ "type": "Feature", "properties": { "lga_name": "Pyrenees" }, "geometry": { "type": "Point", "coordinates": [ 143.4770359, -37.3879637 ] } },
{ "type": "Feature", "properties": { "lga_name": "Queenscliffe" }, "geometry": { "type": "Point", "coordinates": [ 144.6286897, -38.2677746 ] } },
{ "type": "Feature", "properties": { "lga_name": "South Gippsland" }, "geometry": { "type": "Point", "coordinates": [ 146.114225299999987, -38.5884838 ] } },
{ "type": "Feature", "properties": { "lga_name": "Southern Grampians" }, "geometry": { "type": "Point", "coordinates": [ 141.852273, -37.4535972 ] } },
{ "type": "Feature", "properties": { "lga_name": "Stonnington" }, "geometry": { "type": "Point", "coordinates": [ 145.0328017, -37.8595876 ] } },
{ "type": "Feature", "properties": { "lga_name": "Strathbogie" }, "geometry": { "type": "Point", "coordinates": [ 145.7113079, -36.879426 ] } },
{ "type": "Feature", "properties": { "lga_name": "Surf Coast" }, "geometry": { "type": "Point", "coordinates": [ 143.9976775, -38.3128176 ] } },
{ "type": "Feature", "properties": { "lga_name": "Swan Hill" }, "geometry": { "type": "Point", "coordinates": [ 143.552480300000013, -35.3396318 ] } },
{ "type": "Feature", "properties": { "lga_name": "Towong" }, "geometry": { "type": "Point", "coordinates": [ 152.9837482, -27.4842895 ] } },
{ "type": "Feature", "properties": { "lga_name": "Wangaratta" }, "geometry": { "type": "Point", "coordinates": [ 146.31721490000001, -36.3682777 ] } },
{ "type": "Feature", "properties": { "lga_name": "Warrnambool" }, "geometry": { "type": "Point", "coordinates": [ 142.4982086, -38.3686779 ] } },
{ "type": "Feature", "properties": { "lga_name": "Wellington" }, "geometry": { "type": "Point", "coordinates": [ 148.9492902, -32.5520391 ] } },
{ "type": "Feature", "properties": { "lga_name": "West Wimmera" }, "geometry": { "type": "Point", "coordinates": [ 141.179454600000014, -36.6091473 ] } },
{ "type": "Feature", "properties": { "lga_name": "Whitehorse" }, "geometry": { "type": "Point", "coordinates": [ 145.148620599999987, -37.8286371 ] } },
{ "type": "Feature", "properties": { "lga_name": "Whittlesea" }, "geometry": { "type": "Point", "coordinates": [ 145.113889, -37.513889 ] } },
{ "type": "Feature", "properties": { "lga_name": "Wodonga" }, "geometry": { "type": "Point", "coordinates": [ 146.88176390000001, -36.1240938 ] } },
{ "type": "Feature", "properties": { "lga_name": "Wyndham" }, "geometry": { "type": "Point", "coordinates": [ 128.2201144, -15.5846706 ] } },
{ "type": "Feature", "properties": { "lga_name": "Yarra" }, "geometry": { "type": "Point", "coordinates": [ 144.9887218, -37.7979219 ] } },
{ "type": "Feature", "properties": { "lga_name": "Yarra Ranges" }, "geometry": { "type": "Point", "coordinates": [ 145.7133909, -37.7450808 ] } },
{ "type": "Feature", "properties": { "lga_name": "Yarriambiack" }, "geometry": { "type": "Point", "coordinates": [ 142.446547399999986, -35.9703773 ] } },
{ "type": "Feature", "properties": { "lga_name": "Unincorporated Vic" }, "geometry": { "type": "Point", "coordinates": [ 144.7851531, -37.4713077 ] } },
{ "type": "Feature", "properties": { "lga_name": "Alpine" }, "geometry": { "type": "Point", "coordinates": [ 148.6093333, -36.4180762 ] } },
{ "type": "Feature", "properties": { "lga_name": "Ararat" }, "geometry": { "type": "Point", "coordinates": [ 142.9316441, -37.2846464 ] } },
{ "type": "Feature", "properties": { "lga_name": "Ballarat" }, "geometry": { "type": "Point", "coordinates": [ 143.8502556, -37.5621587 ] } },
{ "type": "Feature", "properties": { "lga_name": "Banyule" }, "geometry": { "type": "Point", "coordinates": [ 145.082419, -37.7314254 ] } },
{ "type": "Feature", "properties": { "lga_name": "Bass Coast" }, "geometry": { "type": "Point", "coordinates": [ 145.5358152, -38.5087582 ] } },
{ "type": "Feature", "properties": { "lga_name": "Baw Baw" }, "geometry": { "type": "Point", "coordinates": [ 146.273611100000011, -37.8383333 ] } },
{ "type": "Feature", "properties": { "lga_name": "Bayside" }, "geometry": { "type": "Point", "coordinates": [ 145.016269, -37.9333402 ] } },
{ "type": "Feature", "properties": { "lga_name": "Benalla" }, "geometry": { "type": "Point", "coordinates": [ 145.963353, -36.5462177 ] } },
{ "type": "Feature", "properties": { "lga_name": "Boroondara" }, "geometry": { "type": "Point", "coordinates": [ 145.071390400000013, -37.8119024 ] } },
{ "type": "Feature", "properties": { "lga_name": "Brimbank" }, "geometry": { "type": "Point", "coordinates": [ 144.8071366, -37.7594793 ] } },
{ "type": "Feature", "properties": { "lga_name": "Buloke" }, "geometry": { "type": "Point", "coordinates": [ 143.2180495, -36.1736195 ] } },
{ "type": "Feature", "properties": { "lga_name": "Campaspe" }, "geometry": { "type": "Point", "coordinates": [ 144.6972774, -36.308533 ] } },
{ "type": "Feature", "properties": { "lga_name": "Cardinia" }, "geometry": { "type": "Point", "coordinates": [ 145.580175700000012, -38.1134884 ] } },
{ "type": "Feature", "properties": { "lga_name": "Casey" }, "geometry": { "type": "Point", "coordinates": [ -85.7467891, 38.2480521 ] } },
{ "type": "Feature", "properties": { "lga_name": "Central Goldfields" }, "geometry": { "type": "Point", "coordinates": [ 143.693540500000012, -36.9802447 ] } },
{ "type": "Feature", "properties": { "lga_name": "Colac-Otway" }, "geometry": { "type": "Point", "coordinates": [ 143.6501903, -38.483006 ] } },
{ "type": "Feature", "properties": { "lga_name": "Corangamite" }, "geometry": { "type": "Point", "coordinates": [ 143.146242, -38.232448 ] } },
{ "type": "Feature", "properties": { "lga_name": "Darebin" }, "geometry": { "type": "Point", "coordinates": [ 145.016269, -37.727768 ] } },
{ "type": "Feature", "properties": { "lga_name": "East Gippsland" }, "geometry": { "type": "Point", "coordinates": [ 148.189292099999989, -37.4975957 ] } },
{ "type": "Feature", "properties": { "lga_name": "Frankston" }, "geometry": { "type": "Point", "coordinates": [ 145.135722, -38.1466246 ] } },
{ "type": "Feature", "properties": { "lga_name": "Gannawarra" }, "geometry": { "type": "Point", "coordinates": [ 143.8237385, -35.7052801 ] } },
{ "type": "Feature", "properties": { "lga_name": "Golden Plains" }, "geometry": { "type": "Point", "coordinates": [ -98.2318, 38.730095899999988 ] } },
{ "type": "Feature", "properties": { "lga_name": "Greater Bendigo" }, "geometry": { "type": "Point", "coordinates": [ 144.3467152, -36.7948261 ] } },
{ "type": "Feature", "properties": { "lga_name": "Greater Dandenong" }, "geometry": { "type": "Point", "coordinates": [ 145.2038278, -38.006110799999988 ] } },
{ "type": "Feature", "properties": { "lga_name": "Greater Geelong" }, "geometry": { "type": "Point", "coordinates": [ 144.3904526, -37.9697434 ] } },
{ "type": "Feature", "properties": { "lga_name": "Greater Shepparton" }, "geometry": { "type": "Point", "coordinates": [ 145.402868, -36.3914888 ] } },
{ "type": "Feature", "properties": { "lga_name": "Hepburn" }, "geometry": { "type": "Point", "coordinates": [ 144.125661, -37.3118233 ] } },
{ "type": "Feature", "properties": { "lga_name": "Hindmarsh" }, "geometry": { "type": "Point", "coordinates": [ 138.570272, -34.9058302 ] } },
{ "type": "Feature", "properties": { "lga_name": "Hobsons Bay" }, "geometry": { "type": "Point", "coordinates": [ 144.8401227, -37.8360799 ] } },
{ "type": "Feature", "properties": { "lga_name": "Horsham" }, "geometry": { "type": "Point", "coordinates": [ 142.1962316, -36.7188618 ] } },
{ "type": "Feature", "properties": { "lga_name": "Hume" }, "geometry": { "type": "Point", "coordinates": [ 144.8291259, -37.5986911 ] } },
{ "type": "Feature", "properties": { "lga_name": "Indigo" }, "geometry": { "type": "Point", "coordinates": [ 144.9657817, -37.8155532 ] } },
{ "type": "Feature", "properties": { "lga_name": "Kingston" }, "geometry": { "type": "Point", "coordinates": [ 139.853750100000013, -36.8310818 ] } },
{ "type": "Feature", "properties": { "lga_name": "Knox" }, "geometry": { "type": "Point", "coordinates": [ 145.24801930000001, -37.8714657 ] } },
{ "type": "Feature", "properties": { "lga_name": "Latrobe" }, "geometry": { "type": "Point", "coordinates": [ 145.0483389, -37.7206639 ] } },
{ "type": "Feature", "properties": { "lga_name": "Loddon" }, "geometry": { "type": "Point", "coordinates": [ 143.910659399999986, -36.4175636 ] } },
{ "type": "Feature", "properties": { "lga_name": "Macedon Ranges" }, "geometry": { "type": "Point", "coordinates": [ 144.6972774, -37.3663141 ] } },
{ "type": "Feature", "properties": { "lga_name": "Manningham" }, "geometry": { "type": "Point", "coordinates": [ 145.1596592, -37.7668506 ] } },
{ "type": "Feature", "properties": { "lga_name": "Mansfield" }, "geometry": { "type": "Point", "coordinates": [ 0.0, 0.0 ] } },
{ "type": "Feature", "properties": { "lga_name": "Maribyrnong" }, "geometry": { "type": "Point", "coordinates": [ 144.882080300000013, -37.7695602 ] } },
{ "type": "Feature", "properties": { "lga_name": "Maroondah" }, "geometry": { "type": "Point", "coordinates": [ 145.2590707, -37.80966 ] } },
{ "type": "Feature", "properties": { "lga_name": "Melbourne" }, "geometry": { "type": "Point", "coordinates": [ 144.963057600000013, -37.8136276 ] } },
{ "type": "Feature", "properties": { "lga_name": "Melton" }, "geometry": { "type": "Point", "coordinates": [ 144.5779508, -37.6835831 ] } },
{ "type": "Feature", "properties": { "lga_name": "Mildura" }, "geometry": { "type": "Point", "coordinates": [ 142.1245535, -34.2080167 ] } },
{ "type": "Feature", "properties": { "lga_name": "Mitchell" }, "geometry": { "type": "Point", "coordinates": [ -73.4067147, 41.4136536 ] } },
{ "type": "Feature", "properties": { "lga_name": "Moira" }, "geometry": { "type": "Point", "coordinates": [ 145.2197821, -37.9133846 ] } },
{ "type": "Feature", "properties": { "lga_name": "Glen Eira" }, "geometry": { "type": "Point", "coordinates": [ 145.0383133, -37.9034811 ] } },
{ "type": "Feature", "properties": { "lga_name": "Glenelg" }, "geometry": { "type": "Point", "coordinates": [ 138.513119100000011, -34.980383 ] } },
{ "type": "Feature", "properties": { "lga_name": "Monash" }, "geometry": { "type": "Point", "coordinates": [ 145.1371751, -37.9109574 ] } },
{ "type": "Feature", "properties": { "lga_name": "Moonee Valley" }, "geometry": { "type": "Point", "coordinates": [ 144.9061342, -37.7465015 ] } },
{ "type": "Feature", "properties": { "lga_name": "Moorabool" }, "geometry": { "type": "Point", "coordinates": [ 144.1720041, -37.6334256 ] } },
{ "type": "Feature", "properties": { "lga_name": "Moreland" }, "geometry": { "type": "Point", "coordinates": [ 144.9501708, -37.7240653 ] } },
{ "type": "Feature", "properties": { "lga_name": "Mornington Peninsula" }, "geometry": { "type": "Point", "coordinates": [ 145.093449, -38.2854053 ] } },
{ "type": "Feature", "properties": { "lga_name": "Mount Alexander" }, "geometry": { "type": "Point", "coordinates": [ 144.1720041, -37.0353437 ] } },
{ "type": "Feature", "properties": { "lga_name": "Moyne" }, "geometry": { "type": "Point", "coordinates": [ 142.446547399999986, -38.1886081 ] } },
{ "type": "Feature", "properties": { "lga_name": "Murrindindi" }, "geometry": { "type": "Point", "coordinates": [ 145.580175700000012, -37.3617931 ] } },
{ "type": "Feature", "properties": { "lga_name": "Nillumbik" }, "geometry": { "type": "Point", "coordinates": [ 145.270123500000011, -37.597667 ] } },
{ "type": "Feature", "properties": { "lga_name": "Northern Grampians" }, "geometry": { "type": "Point", "coordinates": [ 142.9599661, -36.9044244 ] } },
{ "type": "Feature", "properties": { "lga_name": "Port Phillip" }, "geometry": { "type": "Point", "coordinates": [ 144.9666905, -37.8464983 ] } },
{ "type": "Feature", "properties": { "lga_name": "Pyrenees" }, "geometry": { "type": "Point", "coordinates": [ 143.4770359, -37.3879637 ] } },
{ "type": "Feature", "properties": { "lga_name": "Queenscliffe" }, "geometry": { "type": "Point", "coordinates": [ 144.6286897, -38.2677746 ] } },
{ "type": "Feature", "properties": { "lga_name": "South Gippsland" }, "geometry": { "type": "Point", "coordinates": [ 146.114225299999987, -38.5884838 ] } },
{ "type": "Feature", "properties": { "lga_name": "Southern Grampians" }, "geometry": { "type": "Point", "coordinates": [ 141.852273, -37.4535972 ] } },
{ "type": "Feature", "properties": { "lga_name": "Stonnington" }, "geometry": { "type": "Point", "coordinates": [ 145.0328017, -37.8595876 ] } },
{ "type": "Feature", "properties": { "lga_name": "Strathbogie" }, "geometry": { "type": "Point", "coordinates": [ 145.7113079, -36.879426 ] } },
{ "type": "Feature", "properties": { "lga_name": "Surf Coast" }, "geometry": { "type": "Point", "coordinates": [ 143.9976775, -38.3128176 ] } },
{ "type": "Feature", "properties": { "lga_name": "Swan Hill" }, "geometry": { "type": "Point", "coordinates": [ 143.552480300000013, -35.3396318 ] } },
{ "type": "Feature", "properties": { "lga_name": "Towong" }, "geometry": { "type": "Point", "coordinates": [ 152.9837482, -27.4842895 ] } },
{ "type": "Feature", "properties": { "lga_name": "Wangaratta" }, "geometry": { "type": "Point", "coordinates": [ 146.31721490000001, -36.3682777 ] } },
{ "type": "Feature", "properties": { "lga_name": "Warrnambool" }, "geometry": { "type": "Point", "coordinates": [ 142.4982086, -38.3686779 ] } },
{ "type": "Feature", "properties": { "lga_name": "Wellington" }, "geometry": { "type": "Point", "coordinates": [ 148.9492902, -32.5520391 ] } },
{ "type": "Feature", "properties": { "lga_name": "West Wimmera" }, "geometry": { "type": "Point", "coordinates": [ 141.179454600000014, -36.6091473 ] } },
{ "type": "Feature", "properties": { "lga_name": "Whitehorse" }, "geometry": { "type": "Point", "coordinates": [ 145.148620599999987, -37.8286371 ] } },
{ "type": "Feature", "properties": { "lga_name": "Whittlesea" }, "geometry": { "type": "Point", "coordinates": [ 145.113889, -37.513889 ] } },
{ "type": "Feature", "properties": { "lga_name": "Wodonga" }, "geometry": { "type": "Point", "coordinates": [ 146.88176390000001, -36.1240938 ] } },
{ "type": "Feature", "properties": { "lga_name": "Wyndham" }, "geometry": { "type": "Point", "coordinates": [ 128.2201144, -15.5846706 ] } },
{ "type": "Feature", "properties": { "lga_name": "Yarra" }, "geometry": { "type": "Point", "coordinates": [ 144.9887218, -37.7979219 ] } },
{ "type": "Feature", "properties": { "lga_name": "Yarra Ranges" }, "geometry": { "type": "Point", "coordinates": [ 145.7133909, -37.7450808 ] } },
{ "type": "Feature", "properties": { "lga_name": "Yarriambiack" }, "geometry": { "type": "Point", "coordinates": [ 142.446547399999986, -35.9703773 ] } },
{ "type": "Feature", "properties": { "lga_name": "Unincorporated Vic" }, "geometry": { "type": "Point", "coordinates": [ 144.7851531, -37.4713077 ] } },
{ "type": "Feature", "properties": { "lga_name": "Alpine" }, "geometry": { "type": "Point", "coordinates": [ 148.6093333, -36.4180762 ] } },
{ "type": "Feature", "properties": { "lga_name": "Ararat" }, "geometry": { "type": "Point", "coordinates": [ 142.9316441, -37.2846464 ] } },
{ "type": "Feature", "properties": { "lga_name": "Ballarat" }, "geometry": { "type": "Point", "coordinates": [ 143.8502556, -37.5621587 ] } },
{ "type": "Feature", "properties": { "lga_name": "Banyule" }, "geometry": { "type": "Point", "coordinates": [ 145.082419, -37.7314254 ] } },
{ "type": "Feature", "properties": { "lga_name": "Bass Coast" }, "geometry": { "type": "Point", "coordinates": [ 145.5358152, -38.5087582 ] } },
{ "type": "Feature", "properties": { "lga_name": "Baw Baw" }, "geometry": { "type": "Point", "coordinates": [ 146.273611100000011, -37.8383333 ] } },
{ "type": "Feature", "properties": { "lga_name": "Bayside" }, "geometry": { "type": "Point", "coordinates": [ 145.016269, -37.9333402 ] } },
{ "type": "Feature", "properties": { "lga_name": "Benalla" }, "geometry": { "type": "Point", "coordinates": [ 145.963353, -36.5462177 ] } },
{ "type": "Feature", "properties": { "lga_name": "Boroondara" }, "geometry": { "type": "Point", "coordinates": [ 145.071390400000013, -37.8119024 ] } },
{ "type": "Feature", "properties": { "lga_name": "Brimbank" }, "geometry": { "type": "Point", "coordinates": [ 144.8071366, -37.7594793 ] } },
{ "type": "Feature", "properties": { "lga_name": "Buloke" }, "geometry": { "type": "Point", "coordinates": [ 143.2180495, -36.1736195 ] } },
{ "type": "Feature", "properties": { "lga_name": "Campaspe" }, "geometry": { "type": "Point", "coordinates": [ 144.6972774, -36.308533 ] } },
{ "type": "Feature", "properties": { "lga_name": "Cardinia" }, "geometry": { "type": "Point", "coordinates": [ 145.580175700000012, -38.1134884 ] } },
{ "type": "Feature", "properties": { "lga_name": "Casey" }, "geometry": { "type": "Point", "coordinates": [ -85.7467891, 38.2480521 ] } },
{ "type": "Feature", "properties": { "lga_name": "Central Goldfields" }, "geometry": { "type": "Point", "coordinates": [ 143.693540500000012, -36.9802447 ] } },
{ "type": "Feature", "properties": { "lga_name": "Colac-Otway" }, "geometry": { "type": "Point", "coordinates": [ 143.6501903, -38.483006 ] } },
{ "type": "Feature", "properties": { "lga_name": "Corangamite" }, "geometry": { "type": "Point", "coordinates": [ 143.146242, -38.232448 ] } },
{ "type": "Feature", "properties": { "lga_name": "Darebin" }, "geometry": { "type": "Point", "coordinates": [ 145.016269, -37.727768 ] } },
{ "type": "Feature", "properties": { "lga_name": "East Gippsland" }, "geometry": { "type": "Point", "coordinates": [ 148.189292099999989, -37.4975957 ] } },
{ "type": "Feature", "properties": { "lga_name": "Frankston" }, "geometry": { "type": "Point", "coordinates": [ 145.135722, -38.1466246 ] } },
{ "type": "Feature", "properties": { "lga_name": "Gannawarra" }, "geometry": { "type": "Point", "coordinates": [ 143.8237385, -35.7052801 ] } },
{ "type": "Feature", "properties": { "lga_name": "Golden Plains" }, "geometry": { "type": "Point", "coordinates": [ -98.2318, 38.730095899999988 ] } },
{ "type": "Feature", "properties": { "lga_name": "Greater Bendigo" }, "geometry": { "type": "Point", "coordinates": [ 144.3467152, -36.7948261 ] } },
{ "type": "Feature", "properties": { "lga_name": "Greater Dandenong" }, "geometry": { "type": "Point", "coordinates": [ 145.2038278, -38.006110799999988 ] } },
{ "type": "Feature", "properties": { "lga_name": "Greater Geelong" }, "geometry": { "type": "Point", "coordinates": [ 144.3904526, -37.9697434 ] } },
{ "type": "Feature", "properties": { "lga_name": "Greater Shepparton" }, "geometry": { "type": "Point", "coordinates": [ 145.402868, -36.3914888 ] } },
{ "type": "Feature", "properties": { "lga_name": "Hepburn" }, "geometry": { "type": "Point", "coordinates": [ 144.125661, -37.3118233 ] } },
{ "type": "Feature", "properties": { "lga_name": "Hindmarsh" }, "geometry": { "type": "Point", "coordinates": [ 138.570272, -34.9058302 ] } },
{ "type": "Feature", "properties": { "lga_name": "Hobsons Bay" }, "geometry": { "type": "Point", "coordinates": [ 144.8401227, -37.8360799 ] } },
{ "type": "Feature", "properties": { "lga_name": "Horsham" }, "geometry": { "type": "Point", "coordinates": [ 142.1962316, -36.7188618 ] } },
{ "type": "Feature", "properties": { "lga_name": "Hume" }, "geometry": { "type": "Point", "coordinates": [ 144.8291259, -37.5986911 ] } },
{ "type": "Feature", "properties": { "lga_name": "Indigo" }, "geometry": { "type": "Point", "coordinates": [ 144.9657817, -37.8155532 ] } },
{ "type": "Feature", "properties": { "lga_name": "Kingston" }, "geometry": { "type": "Point", "coordinates": [ 139.853750100000013, -36.8310818 ] } },
{ "type": "Feature", "properties": { "lga_name": "Knox" }, "geometry": { "type": "Point", "coordinates": [ 145.24801930000001, -37.8714657 ] } },
{ "type": "Feature", "properties": { "lga_name": "Latrobe" }, "geometry": { "type": "Point", "coordinates": [ 145.0483389, -37.7206639 ] } },
{ "type": "Feature", "properties": { "lga_name": "Loddon" }, "geometry": { "type": "Point", "coordinates": [ 143.910659399999986, -36.4175636 ] } },
{ "type": "Feature", "properties": { "lga_name": "Macedon Ranges" }, "geometry": { "type": "Point", "coordinates": [ 144.6972774, -37.3663141 ] } },
{ "type": "Feature", "properties": { "lga_name": "Manningham" }, "geometry": { "type": "Point", "coordinates": [ 145.1596592, -37.7668506 ] } },
{ "type": "Feature", "properties": { "lga_name": "Mansfield" }, "geometry": { "type": "Point", "coordinates": [ 0.0, 0.0 ] } },
{ "type": "Feature", "properties": { "lga_name": "Maribyrnong" }, "geometry": { "type": "Point", "coordinates": [ 144.882080300000013, -37.7695602 ] } },
{ "type": "Feature", "properties": { "lga_name": "Maroondah" }, "geometry": { "type": "Point", "coordinates": [ 145.2590707, -37.80966 ] } },
{ "type": "Feature", "properties": { "lga_name": "Melbourne" }, "geometry": { "type": "Point", "coordinates": [ 144.963057600000013, -37.8136276 ] } },
{ "type": "Feature", "properties": { "lga_name": "Melton" }, "geometry": { "type": "Point", "coordinates": [ 144.5779508, -37.6835831 ] } },
{ "type": "Feature", "properties": { "lga_name": "Mildura" }, "geometry": { "type": "Point", "coordinates": [ 142.1245535, -34.2080167 ] } },
{ "type": "Feature", "properties": { "lga_name": "Mitchell" }, "geometry": { "type": "Point", "coordinates": [ -73.4067147, 41.4136536 ] } },
{ "type": "Feature", "properties": { "lga_name": "Moira" }, "geometry": { "type": "Point", "coordinates": [ 145.2197821, -37.9133846 ] } },
{ "type": "Feature", "properties": { "lga_name": "Glen Eira" }, "geometry": { "type": "Point", "coordinates": [ 145.0383133, -37.9034811 ] } },
{ "type": "Feature", "properties": { "lga_name": "Glenelg" }, "geometry": { "type": "Point", "coordinates": [ 138.513119100000011, -34.980383 ] } },
{ "type": "Feature", "properties": { "lga_name": "Monash" }, "geometry": { "type": "Point", "coordinates": [ 145.1371751, -37.9109574 ] } },
{ "type": "Feature", "properties": { "lga_name": "Moonee Valley" }, "geometry": { "type": "Point", "coordinates": [ 144.9061342, -37.7465015 ] } },
{ "type": "Feature", "properties": { "lga_name": "Moorabool" }, "geometry": { "type": "Point", "coordinates": [ 144.1720041, -37.6334256 ] } },
{ "type": "Feature", "properties": { "lga_name": "Moreland" }, "geometry": { "type": "Point", "coordinates": [ 144.9501708, -37.7240653 ] } },
{ "type": "Feature", "properties": { "lga_name": "Mornington Peninsula" }, "geometry": { "type": "Point", "coordinates": [ 145.093449, -38.2854053 ] } },
{ "type": "Feature", "properties": { "lga_name": "Mount Alexander" }, "geometry": { "type": "Point", "coordinates": [ 144.1720041, -37.0353437 ] } },
{ "type": "Feature", "properties": { "lga_name": "Moyne" }, "geometry": { "type": "Point", "coordinates": [ 142.446547399999986, -38.1886081 ] } },
{ "type": "Feature", "properties": { "lga_name": "Murrindindi" }, "geometry": { "type": "Point", "coordinates": [ 145.580175700000012, -37.3617931 ] } },
{ "type": "Feature", "properties": { "lga_name": "Nillumbik" }, "geometry": { "type": "Point", "coordinates": [ 145.270123500000011, -37.597667 ] } },
{ "type": "Feature", "properties": { "lga_name": "Northern Grampians" }, "geometry": { "type": "Point", "coordinates": [ 142.9599661, -36.9044244 ] } },
{ "type": "Feature", "properties": { "lga_name": "Port Phillip" }, "geometry": { "type": "Point", "coordinates": [ 144.9666905, -37.8464983 ] } },
{ "type": "Feature", "properties": { "lga_name": "Pyrenees" }, "geometry": { "type": "Point", "coordinates": [ 143.4770359, -37.3879637 ] } },
{ "type": "Feature", "properties": { "lga_name": "Queenscliffe" }, "geometry": { "type": "Point", "coordinates": [ 144.6286897, -38.2677746 ] } },
{ "type": "Feature", "properties": { "lga_name": "South Gippsland" }, "geometry": { "type": "Point", "coordinates": [ 146.114225299999987, -38.5884838 ] } },
{ "type": "Feature", "properties": { "lga_name": "Southern Grampians" }, "geometry": { "type": "Point", "coordinates": [ 141.852273, -37.4535972 ] } },
{ "type": "Feature", "properties": { "lga_name": "Stonnington" }, "geometry": { "type": "Point", "coordinates": [ 145.0328017, -37.8595876 ] } },
{ "type": "Feature", "properties": { "lga_name": "Strathbogie" }, "geometry": { "type": "Point", "coordinates": [ 145.7113079, -36.879426 ] } },
{ "type": "Feature", "properties": { "lga_name": "Surf Coast" }, "geometry": { "type": "Point", "coordinates": [ 143.9976775, -38.3128176 ] } },
{ "type": "Feature", "properties": { "lga_name": "Swan Hill" }, "geometry": { "type": "Point", "coordinates": [ 143.552480300000013, -35.3396318 ] } },
{ "type": "Feature", "properties": { "lga_name": "Towong" }, "geometry": { "type": "Point", "coordinates": [ 152.9837482, -27.4842895 ] } },
{ "type": "Feature", "properties": { "lga_name": "Wangaratta" }, "geometry": { "type": "Point", "coordinates": [ 146.31721490000001, -36.3682777 ] } },
{ "type": "Feature", "properties": { "lga_name": "Warrnambool" }, "geometry": { "type": "Point", "coordinates": [ 142.4982086, -38.3686779 ] } },
{ "type": "Feature", "properties": { "lga_name": "Wellington" }, "geometry": { "type": "Point", "coordinates": [ 148.9492902, -32.5520391 ] } },
{ "type": "Feature", "properties": { "lga_name": "West Wimmera" }, "geometry": { "type": "Point", "coordinates": [ 141.179454600000014, -36.6091473 ] } },
{ "type": "Feature", "properties": { "lga_name": "Whitehorse" }, "geometry": { "type": "Point", "coordinates": [ 145.148620599999987, -37.8286371 ] } },
{ "type": "Feature", "properties": { "lga_name": "Whittlesea" }, "geometry": { "type": "Point", "coordinates": [ 145.113889, -37.513889 ] } },
{ "type": "Feature", "properties": { "lga_name": "Wodonga" }, "geometry": { "type": "Point", "coordinates": [ 146.88176390000001, -36.1240938 ] } },
{ "type": "Feature", "properties": { "lga_name": "Wyndham" }, "geometry": { "type": "Point", "coordinates": [ 128.2201144, -15.5846706 ] } },
{ "type": "Feature", "properties": { "lga_name": "Yarra" }, "geometry": { "type": "Point", "coordinates": [ 144.9887218, -37.7979219 ] } },
{ "type": "Feature", "properties": { "lga_name": "Yarra Ranges" }, "geometry": { "type": "Point", "coordinates": [ 145.7133909, -37.7450808 ] } },
{ "type": "Feature", "properties": { "lga_name": "Yarriambiack" }, "geometry": { "type": "Point", "coordinates": [ 142.446547399999986, -35.9703773 ] } },
{ "type": "Feature", "properties": { "lga_name": "Unincorporated Vic" }, "geometry": { "type": "Point", "coordinates": [ 144.7851531, -37.4713077 ] } },
{ "type": "Feature", "properties": { "lga_name": "Alpine" }, "geometry": { "type": "Point", "coordinates": [ 148.6093333, -36.4180762 ] } },
{ "type": "Feature", "properties": { "lga_name": "Ararat" }, "geometry": { "type": "Point", "coordinates": [ 142.9316441, -37.2846464 ] } },
{ "type": "Feature", "properties": { "lga_name": "Ballarat" }, "geometry": { "type": "Point", "coordinates": [ 143.8502556, -37.5621587 ] } },
{ "type": "Feature", "properties": { "lga_name": "Banyule" }, "geometry": { "type": "Point", "coordinates": [ 145.082419, -37.7314254 ] } },
{ "type": "Feature", "properties": { "lga_name": "Bass Coast" }, "geometry": { "type": "Point", "coordinates": [ 145.5358152, -38.5087582 ] } },
{ "type": "Feature", "properties": { "lga_name": "Baw Baw" }, "geometry": { "type": "Point", "coordinates": [ 146.273611100000011, -37.8383333 ] } },
{ "type": "Feature", "properties": { "lga_name": "Bayside" }, "geometry": { "type": "Point", "coordinates": [ 145.016269, -37.9333402 ] } },
{ "type": "Feature", "properties": { "lga_name": "Benalla" }, "geometry": { "type": "Point", "coordinates": [ 145.963353, -36.5462177 ] } },
{ "type": "Feature", "properties": { "lga_name": "Boroondara" }, "geometry": { "type": "Point", "coordinates": [ 145.071390400000013, -37.8119024 ] } },
{ "type": "Feature", "properties": { "lga_name": "Brimbank" }, "geometry": { "type": "Point", "coordinates": [ 144.8071366, -37.7594793 ] } },
{ "type": "Feature", "properties": { "lga_name": "Buloke" }, "geometry": { "type": "Point", "coordinates": [ 143.2180495, -36.1736195 ] } },
{ "type": "Feature", "properties": { "lga_name": "Campaspe" }, "geometry": { "type": "Point", "coordinates": [ 144.6972774, -36.308533 ] } },
{ "type": "Feature", "properties": { "lga_name": "Cardinia" }, "geometry": { "type": "Point", "coordinates": [ 145.580175700000012, -38.1134884 ] } },
{ "type": "Feature", "properties": { "lga_name": "Casey" }, "geometry": { "type": "Point", "coordinates": [ -85.7467891, 38.2480521 ] } },
{ "type": "Feature", "properties": { "lga_name": "Central Goldfields" }, "geometry": { "type": "Point", "coordinates": [ 143.693540500000012, -36.9802447 ] } },
{ "type": "Feature", "properties": { "lga_name": "Colac-Otway" }, "geometry": { "type": "Point", "coordinates": [ 143.6501903, -38.483006 ] } },
{ "type": "Feature", "properties": { "lga_name": "Corangamite" }, "geometry": { "type": "Point", "coordinates": [ 143.146242, -38.232448 ] } },
{ "type": "Feature", "properties": { "lga_name": "Darebin" }, "geometry": { "type": "Point", "coordinates": [ 145.016269, -37.727768 ] } },
{ "type": "Feature", "properties": { "lga_name": "East Gippsland" }, "geometry": { "type": "Point", "coordinates": [ 148.189292099999989, -37.4975957 ] } },
{ "type": "Feature", "properties": { "lga_name": "Frankston" }, "geometry": { "type": "Point", "coordinates": [ 145.135722, -38.1466246 ] } },
{ "type": "Feature", "properties": { "lga_name": "Gannawarra" }, "geometry": { "type": "Point", "coordinates": [ 143.8237385, -35.7052801 ] } },
{ "type": "Feature", "properties": { "lga_name": "Golden Plains" }, "geometry": { "type": "Point", "coordinates": [ -98.2318, 38.730095899999988 ] } },
{ "type": "Feature", "properties": { "lga_name": "Greater Bendigo" }, "geometry": { "type": "Point", "coordinates": [ 144.3467152, -36.7948261 ] } },
{ "type": "Feature", "properties": { "lga_name": "Greater Dandenong" }, "geometry": { "type": "Point", "coordinates": [ 145.2038278, -38.006110799999988 ] } },
{ "type": "Feature", "properties": { "lga_name": "Greater Geelong" }, "geometry": { "type": "Point", "coordinates": [ 144.3904526, -37.9697434 ] } },
{ "type": "Feature", "properties": { "lga_name": "Greater Shepparton" }, "geometry": { "type": "Point", "coordinates": [ 145.402868, -36.3914888 ] } },
{ "type": "Feature", "properties": { "lga_name": "Hepburn" }, "geometry": { "type": "Point", "coordinates": [ 144.125661, -37.3118233 ] } },
{ "type": "Feature", "properties": { "lga_name": "Hindmarsh" }, "geometry": { "type": "Point", "coordinates": [ 138.570272, -34.9058302 ] } },
{ "type": "Feature", "properties": { "lga_name": "Hobsons Bay" }, "geometry": { "type": "Point", "coordinates": [ 144.8401227, -37.8360799 ] } },
{ "type": "Feature", "properties": { "lga_name": "Horsham" }, "geometry": { "type": "Point", "coordinates": [ 142.1962316, -36.7188618 ] } },
{ "type": "Feature", "properties": { "lga_name": "Hume" }, "geometry": { "type": "Point", "coordinates": [ 144.8291259, -37.5986911 ] } },
{ "type": "Feature", "properties": { "lga_name": "Indigo" }, "geometry": { "type": "Point", "coordinates": [ 144.9657817, -37.8155532 ] } },
{ "type": "Feature", "properties": { "lga_name": "Kingston" }, "geometry": { "type": "Point", "coordinates": [ 139.853750100000013, -36.8310818 ] } },
{ "type": "Feature", "properties": { "lga_name": "Knox" }, "geometry": { "type": "Point", "coordinates": [ 145.24801930000001, -37.8714657 ] } },
{ "type": "Feature", "properties": { "lga_name": "Latrobe" }, "geometry": { "type": "Point", "coordinates": [ 145.0483389, -37.7206639 ] } },
{ "type": "Feature", "properties": { "lga_name": "Loddon" }, "geometry": { "type": "Point", "coordinates": [ 143.910659399999986, -36.4175636 ] } },
{ "type": "Feature", "properties": { "lga_name": "Macedon Ranges" }, "geometry": { "type": "Point", "coordinates": [ 144.6972774, -37.3663141 ] } },
{ "type": "Feature", "properties": { "lga_name": "Manningham" }, "geometry": { "type": "Point", "coordinates": [ 145.1596592, -37.7668506 ] } },
{ "type": "Feature", "properties": { "lga_name": "Mansfield" }, "geometry": { "type": "Point", "coordinates": [ 0.0, 0.0 ] } },
{ "type": "Feature", "properties": { "lga_name": "Maribyrnong" }, "geometry": { "type": "Point", "coordinates": [ 144.882080300000013, -37.7695602 ] } },
{ "type": "Feature", "properties": { "lga_name": "Maroondah" }, "geometry": { "type": "Point", "coordinates": [ 145.2590707, -37.80966 ] } },
{ "type": "Feature", "properties": { "lga_name": "Melbourne" }, "geometry": { "type": "Point", "coordinates": [ 144.963057600000013, -37.8136276 ] } },
{ "type": "Feature", "properties": { "lga_name": "Melton" }, "geometry": { "type": "Point", "coordinates": [ 144.5779508, -37.6835831 ] } },
{ "type": "Feature", "properties": { "lga_name": "Mildura" }, "geometry": { "type": "Point", "coordinates": [ 142.1245535, -34.2080167 ] } },
{ "type": "Feature", "properties": { "lga_name": "Mitchell" }, "geometry": { "type": "Point", "coordinates": [ -73.4067147, 41.4136536 ] } },
{ "type": "Feature", "properties": { "lga_name": "Moira" }, "geometry": { "type": "Point", "coordinates": [ 145.2197821, -37.9133846 ] } },
{ "type": "Feature", "properties": { "lga_name": "Glen Eira" }, "geometry": { "type": "Point", "coordinates": [ 145.0383133, -37.9034811 ] } },
{ "type": "Feature", "properties": { "lga_name": "Glenelg" }, "geometry": { "type": "Point", "coordinates": [ 138.513119100000011, -34.980383 ] } },
{ "type": "Feature", "properties": { "lga_name": "Monash" }, "geometry": { "type": "Point", "coordinates": [ 145.1371751, -37.9109574 ] } },
{ "type": "Feature", "properties": { "lga_name": "Moonee Valley" }, "geometry": { "type": "Point", "coordinates": [ 144.9061342, -37.7465015 ] } },
{ "type": "Feature", "properties": { "lga_name": "Moorabool" }, "geometry": { "type": "Point", "coordinates": [ 144.1720041, -37.6334256 ] } },
{ "type": "Feature", "properties": { "lga_name": "Moreland" }, "geometry": { "type": "Point", "coordinates": [ 144.9501708, -37.7240653 ] } },
{ "type": "Feature", "properties": { "lga_name": "Mornington Peninsula" }, "geometry": { "type": "Point", "coordinates": [ 145.093449, -38.2854053 ] } },
{ "type": "Feature", "properties": { "lga_name": "Mount Alexander" }, "geometry": { "type": "Point", "coordinates": [ 144.1720041, -37.0353437 ] } },
{ "type": "Feature", "properties": { "lga_name": "Moyne" }, "geometry": { "type": "Point", "coordinates": [ 142.446547399999986, -38.1886081 ] } },
{ "type": "Feature", "properties": { "lga_name": "Murrindindi" }, "geometry": { "type": "Point", "coordinates": [ 145.580175700000012, -37.3617931 ] } },
{ "type": "Feature", "properties": { "lga_name": "Nillumbik" }, "geometry": { "type": "Point", "coordinates": [ 145.270123500000011, -37.597667 ] } },
{ "type": "Feature", "properties": { "lga_name": "Northern Grampians" }, "geometry": { "type": "Point", "coordinates": [ 142.9599661, -36.9044244 ] } },
{ "type": "Feature", "properties": { "lga_name": "Port Phillip" }, "geometry": { "type": "Point", "coordinates": [ 144.9666905, -37.8464983 ] } },
{ "type": "Feature", "properties": { "lga_name": "Pyrenees" }, "geometry": { "type": "Point", "coordinates": [ 143.4770359, -37.3879637 ] } },
{ "type": "Feature", "properties": { "lga_name": "Queenscliffe" }, "geometry": { "type": "Point", "coordinates": [ 144.6286897, -38.2677746 ] } },
{ "type": "Feature", "properties": { "lga_name": "South Gippsland" }, "geometry": { "type": "Point", "coordinates": [ 146.114225299999987, -38.5884838 ] } },
{ "type": "Feature", "properties": { "lga_name": "Southern Grampians" }, "geometry": { "type": "Point", "coordinates": [ 141.852273, -37.4535972 ] } },
{ "type": "Feature", "properties": { "lga_name": "Stonnington" }, "geometry": { "type": "Point", "coordinates": [ 145.0328017, -37.8595876 ] } },
{ "type": "Feature", "properties": { "lga_name": "Strathbogie" }, "geometry": { "type": "Point", "coordinates": [ 145.7113079, -36.879426 ] } },
{ "type": "Feature", "properties": { "lga_name": "Surf Coast" }, "geometry": { "type": "Point", "coordinates": [ 143.9976775, -38.3128176 ] } },
{ "type": "Feature", "properties": { "lga_name": "Swan Hill" }, "geometry": { "type": "Point", "coordinates": [ 143.552480300000013, -35.3396318 ] } },
{ "type": "Feature", "properties": { "lga_name": "Towong" }, "geometry": { "type": "Point", "coordinates": [ 152.9837482, -27.4842895 ] } },
{ "type": "Feature", "properties": { "lga_name": "Wangaratta" }, "geometry": { "type": "Point", "coordinates": [ 146.31721490000001, -36.3682777 ] } },
{ "type": "Feature", "properties": { "lga_name": "Warrnambool" }, "geometry": { "type": "Point", "coordinates": [ 142.4982086, -38.3686779 ] } },
{ "type": "Feature", "properties": { "lga_name": "Wellington" }, "geometry": { "type": "Point", "coordinates": [ 148.9492902, -32.5520391 ] } },
{ "type": "Feature", "properties": { "lga_name": "West Wimmera" }, "geometry": { "type": "Point", "coordinates": [ 141.179454600000014, -36.6091473 ] } },
{ "type": "Feature", "properties": { "lga_name": "Whitehorse" }, "geometry": { "type": "Point", "coordinates": [ 145.148620599999987, -37.8286371 ] } },
{ "type": "Feature", "properties": { "lga_name": "Whittlesea" }, "geometry": { "type": "Point", "coordinates": [ 145.113889, -37.513889 ] } },
{ "type": "Feature", "properties": { "lga_name": "Wodonga" }, "geometry": { "type": "Point", "coordinates": [ 146.88176390000001, -36.1240938 ] } },
{ "type": "Feature", "properties": { "lga_name": "Wyndham" }, "geometry": { "type": "Point", "coordinates": [ 128.2201144, -15.5846706 ] } },
{ "type": "Feature", "properties": { "lga_name": "Yarra" }, "geometry": { "type": "Point", "coordinates": [ 144.9887218, -37.7979219 ] } },
{ "type": "Feature", "properties": { "lga_name": "Yarra Ranges" }, "geometry": { "type": "Point", "coordinates": [ 145.7133909, -37.7450808 ] } },
{ "type": "Feature", "properties": { "lga_name": "Yarriambiack" }, "geometry": { "type": "Point", "coordinates": [ 142.446547399999986, -35.9703773 ] } },
{ "type": "Feature", "properties": { "lga_name": "Unincorporated Vic" }, "geometry": { "type": "Point", "coordinates": [ 144.7851531, -37.4713077 ] } },
{ "type": "Feature", "properties": { "lga_name": "Alpine" }, "geometry": { "type": "Point", "coordinates": [ 148.6093333, -36.4180762 ] } },
{ "type": "Feature", "properties": { "lga_name": "Ararat" }, "geometry": { "type": "Point", "coordinates": [ 142.9316441, -37.2846464 ] } },
{ "type": "Feature", "properties": { "lga_name": "Ballarat" }, "geometry": { "type": "Point", "coordinates": [ 143.8502556, -37.5621587 ] } },
{ "type": "Feature", "properties": { "lga_name": "Banyule" }, "geometry": { "type": "Point", "coordinates": [ 145.082419, -37.7314254 ] } },
{ "type": "Feature", "properties": { "lga_name": "Bass Coast" }, "geometry": { "type": "Point", "coordinates": [ 145.5358152, -38.5087582 ] } },
{ "type": "Feature", "properties": { "lga_name": "Baw Baw" }, "geometry": { "type": "Point", "coordinates": [ 146.273611100000011, -37.8383333 ] } },
{ "type": "Feature", "properties": { "lga_name": "Bayside" }, "geometry": { "type": "Point", "coordinates": [ 145.016269, -37.9333402 ] } },
{ "type": "Feature", "properties": { "lga_name": "Benalla" }, "geometry": { "type": "Point", "coordinates": [ 145.963353, -36.5462177 ] } },
{ "type": "Feature", "properties": { "lga_name": "Boroondara" }, "geometry": { "type": "Point", "coordinates": [ 145.071390400000013, -37.8119024 ] } },
{ "type": "Feature", "properties": { "lga_name": "Brimbank" }, "geometry": { "type": "Point", "coordinates": [ 144.8071366, -37.7594793 ] } },
{ "type": "Feature", "properties": { "lga_name": "Buloke" }, "geometry": { "type": "Point", "coordinates": [ 143.2180495, -36.1736195 ] } },
{ "type": "Feature", "properties": { "lga_name": "Campaspe" }, "geometry": { "type": "Point", "coordinates": [ 144.6972774, -36.308533 ] } },
{ "type": "Feature", "properties": { "lga_name": "Cardinia" }, "geometry": { "type": "Point", "coordinates": [ 145.580175700000012, -38.1134884 ] } },
{ "type": "Feature", "properties": { "lga_name": "Casey" }, "geometry": { "type": "Point", "coordinates": [ -85.7467891, 38.2480521 ] } },
{ "type": "Feature", "properties": { "lga_name": "Central Goldfields" }, "geometry": { "type": "Point", "coordinates": [ 143.693540500000012, -36.9802447 ] } },
{ "type": "Feature", "properties": { "lga_name": "Colac-Otway" }, "geometry": { "type": "Point", "coordinates": [ 143.6501903, -38.483006 ] } },
{ "type": "Feature", "properties": { "lga_name": "Corangamite" }, "geometry": { "type": "Point", "coordinates": [ 143.146242, -38.232448 ] } },
{ "type": "Feature", "properties": { "lga_name": "Darebin" }, "geometry": { "type": "Point", "coordinates": [ 145.016269, -37.727768 ] } },
{ "type": "Feature", "properties": { "lga_name": "East Gippsland" }, "geometry": { "type": "Point", "coordinates": [ 148.189292099999989, -37.4975957 ] } },
{ "type": "Feature", "properties": { "lga_name": "Frankston" }, "geometry": { "type": "Point", "coordinates": [ 145.135722, -38.1466246 ] } },
{ "type": "Feature", "properties": { "lga_name": "Gannawarra" }, "geometry": { "type": "Point", "coordinates": [ 143.8237385, -35.7052801 ] } },
{ "type": "Feature", "properties": { "lga_name": "Golden Plains" }, "geometry": { "type": "Point", "coordinates": [ -98.2318, 38.730095899999988 ] } },
{ "type": "Feature", "properties": { "lga_name": "Greater Bendigo" }, "geometry": { "type": "Point", "coordinates": [ 144.3467152, -36.7948261 ] } },
{ "type": "Feature", "properties": { "lga_name": "Greater Dandenong" }, "geometry": { "type": "Point", "coordinates": [ 145.2038278, -38.006110799999988 ] } },
{ "type": "Feature", "properties": { "lga_name": "Greater Geelong" }, "geometry": { "type": "Point", "coordinates": [ 144.3904526, -37.9697434 ] } },
{ "type": "Feature", "properties": { "lga_name": "Greater Shepparton" }, "geometry": { "type": "Point", "coordinates": [ 145.402868, -36.3914888 ] } },
{ "type": "Feature", "properties": { "lga_name": "Hepburn" }, "geometry": { "type": "Point", "coordinates": [ 144.125661, -37.3118233 ] } },
{ "type": "Feature", "properties": { "lga_name": "Hindmarsh" }, "geometry": { "type": "Point", "coordinates": [ 138.570272, -34.9058302 ] } },
{ "type": "Feature", "properties": { "lga_name": "Hobsons Bay" }, "geometry": { "type": "Point", "coordinates": [ 144.8401227, -37.8360799 ] } },
{ "type": "Feature", "properties": { "lga_name": "Horsham" }, "geometry": { "type": "Point", "coordinates": [ 142.1962316, -36.7188618 ] } },
{ "type": "Feature", "properties": { "lga_name": "Hume" }, "geometry": { "type": "Point", "coordinates": [ 144.8291259, -37.5986911 ] } },
{ "type": "Feature", "properties": { "lga_name": "Indigo" }, "geometry": { "type": "Point", "coordinates": [ 144.9657817, -37.8155532 ] } },
{ "type": "Feature", "properties": { "lga_name": "Kingston" }, "geometry": { "type": "Point", "coordinates": [ 139.853750100000013, -36.8310818 ] } },
{ "type": "Feature", "properties": { "lga_name": "Knox" }, "geometry": { "type": "Point", "coordinates": [ 145.24801930000001, -37.8714657 ] } },
{ "type": "Feature", "properties": { "lga_name": "Latrobe" }, "geometry": { "type": "Point", "coordinates": [ 145.0483389, -37.7206639 ] } },
{ "type": "Feature", "properties": { "lga_name": "Loddon" }, "geometry": { "type": "Point", "coordinates": [ 143.910659399999986, -36.4175636 ] } },
{ "type": "Feature", "properties": { "lga_name": "Macedon Ranges" }, "geometry": { "type": "Point", "coordinates": [ 144.6972774, -37.3663141 ] } },
{ "type": "Feature", "properties": { "lga_name": "Manningham" }, "geometry": { "type": "Point", "coordinates": [ 145.1596592, -37.7668506 ] } },
{ "type": "Feature", "properties": { "lga_name": "Mansfield" }, "geometry": { "type": "Point", "coordinates": [ 0.0, 0.0 ] } },
{ "type": "Feature", "properties": { "lga_name": "Maribyrnong" }, "geometry": { "type": "Point", "coordinates": [ 144.882080300000013, -37.7695602 ] } },
{ "type": "Feature", "properties": { "lga_name": "Maroondah" }, "geometry": { "type": "Point", "coordinates": [ 145.2590707, -37.80966 ] } },
{ "type": "Feature", "properties": { "lga_name": "Melbourne" }, "geometry": { "type": "Point", "coordinates": [ 144.963057600000013, -37.8136276 ] } },
{ "type": "Feature", "properties": { "lga_name": "Melton" },